PARAM filename /home/merci/stachnis/tmp/csail.log
PARAM outfilename csail.new.gfs
PARAM xmin -100
PARAM ymin -100
PARAM xmax 100
PARAM ymax 100
PARAM delta 0.05
PARAM sigma 0.05
PARAM maxrange 80
PARAM maxUrange 80
PARAM regscore 10000
PARAM lstep 0.05
PARAM astep 0.05
PARAM kernelSize 1
PARAM iterations 5
PARAM critscore 0
PARAM maxMove 1
PARAM lsigma 0.075
PARAM ogain 3
PARAM lskip 0
PARAM autosize 0
PARAM skipMatching 0
PARAM srr 0.1
PARAM srt 0.1
PARAM str 0.1
PARAM stt 0.1
PARAM particles 30
PARAM randseed 0
PARAM angularUpdate 0.6
PARAM linearUpdate 1
PARAM resampleThreshold 0.5
PARAM llsamplerange 0.01
PARAM lasamplerange 0.005
PARAM llsamplestep 0.01
PARAM lasamplestep 0.005
ODOM 576.537 0.107 -2.255213 1134864629.895182
ODO_UPDATE 30 0.000 0.000 0.000000 0.000000 0.000 0.000 0.000000 0.000000 0.000 0.000 0.000000 0.000000 0.000 0.000 0.000000 0.000000 0.000 0.000 0.000000 0.000000 0.000 0.000 0.000000 0.000000 0.000 0.000 0.000000 0.000000 0.000 0.000 0.000000 0.000000 0.000 0.000 0.000000 0.000000 0.000 0.000 0.000000 0.000000 0.000 0.000 0.000000 0.000000 0.000 0.000 0.000000 0.000000 0.000 0.000 0.000000 0.000000 0.000 0.000 0.000000 0.000000 0.000 0.000 0.000000 0.000000 0.000 0.000 0.000000 0.000000 0.000 0.000 0.000000 0.000000 0.000 0.000 0.000000 0.000000 0.000 0.000 0.000000 0.000000 0.000 0.000 0.000000 0.000000 0.000 0.000 0.000000 0.000000 0.000 0.000 0.000000 0.000000 0.000 0.000 0.000000 0.000000 0.000 0.000 0.000000 0.000000 0.000 0.000 0.000000 0.000000 0.000 0.000 0.000000 0.000000 0.000 0.000 0.000000 0.000000 0.000 0.000 0.000000 0.000000 0.000 0.000 0.000000 0.000000 0.000 0.000 0.000000 0.000000 1134864629.895182
FRAME 0 0.000000 0.000000
ODOM 576.537 0.107 -2.255213 1134864630.105179
ODO_UPDATE 30 0.000 0.000 0.000000 0.000000 0.000 0.000 0.000000 0.000000 0.000 0.000 0.000000 0.000000 0.000 0.000 0.000000 0.000000 0.000 0.000 0.000000 0.000000 0.000 0.000 0.000000 0.000000 0.000 0.000 0.000000 0.000000 0.000 0.000 0.000000 0.000000 0.000 0.000 0.000000 0.000000 0.000 0.000 0.000000 0.000000 0.000 0.000 0.000000 0.000000 0.000 0.000 0.000000 0.000000 0.000 0.000 0.000000 0.000000 0.000 0.000 0.000000 0.000000 0.000 0.000 0.000000 0.000000 0.000 0.000 0.000000 0.000000 0.000 0.000 0.000000 0.000000 0.000 0.000 0.000000 0.000000 0.000 0.000 0.000000 0.000000 0.000 0.000 0.000000 0.000000 0.000 0.000 0.000000 0.000000 0.000 0.000 0.000000 0.000000 0.000 0.000 0.000000 0.000000 0.000 0.000 0.000000 0.000000 0.000 0.000 0.000000 0.000000 0.000 0.000 0.000000 0.000000 0.000 0.000 0.000000 0.000000 0.000 0.000 0.000000 0.000000 0.000 0.000 0.000000 0.000000 0.000 0.000 0.000000 0.000000 1134864630.105179
ODOM 576.537 0.107 -2.255213 1134864630.325184
ODO_UPDATE 30 0.000 0.000 0.000000 0.000000 0.000 0.000 0.000000 0.000000 0.000 0.000 0.000000 0.000000 0.000 0.000 0.000000 0.000000 0.000 0.000 0.000000 0.000000 0.000 0.000 0.000000 0.000000 0.000 0.000 0.000000 0.000000 0.000 0.000 0.000000 0.000000 0.000 0.000 0.000000 0.000000 0.000 0.000 0.000000 0.000000 0.000 0.000 0.000000 0.000000 0.000 0.000 0.000000 0.000000 0.000 0.000 0.000000 0.000000 0.000 0.000 0.000000 0.000000 0.000 0.000 0.000000 0.000000 0.000 0.000 0.000000 0.000000 0.000 0.000 0.000000 0.000000 0.000 0.000 0.000000 0.000000 0.000 0.000 0.000000 0.000000 0.000 0.000 0.000000 0.000000 0.000 0.000 0.000000 0.000000 0.000 0.000 0.000000 0.000000 0.000 0.000 0.000000 0.000000 0.000 0.000 0.000000 0.000000 0.000 0.000 0.000000 0.000000 0.000 0.000 0.000000 0.000000 0.000 0.000 0.000000 0.000000 0.000 0.000 0.000000 0.000000 0.000 0.000 0.000000 0.000000 0.000 0.000 0.000000 0.000000 1134864630.325184
ODOM 576.537 0.107 -2.255213 1134864630.535181
ODO_UPDATE 30 0.000 0.000 0.000000 0.000000 0.000 0.000 0.000000 0.000000 0.000 0.000 0.000000 0.000000 0.000 0.000 0.000000 0.000000 0.000 0.000 0.000000 0.000000 0.000 0.000 0.000000 0.000000 0.000 0.000 0.000000 0.000000 0.000 0.000 0.000000 0.000000 0.000 0.000 0.000000 0.000000 0.000 0.000 0.000000 0.000000 0.000 0.000 0.000000 0.000000 0.000 0.000 0.000000 0.000000 0.000 0.000 0.000000 0.000000 0.000 0.000 0.000000 0.000000 0.000 0.000 0.000000 0.000000 0.000 0.000 0.000000 0.000000 0.000 0.000 0.000000 0.000000 0.000 0.000 0.000000 0.000000 0.000 0.000 0.000000 0.000000 0.000 0.000 0.000000 0.000000 0.000 0.000 0.000000 0.000000 0.000 0.000 0.000000 0.000000 0.000 0.000 0.000000 0.000000 0.000 0.000 0.000000 0.000000 0.000 0.000 0.000000 0.000000 0.000 0.000 0.000000 0.000000 0.000 0.000 0.000000 0.000000 0.000 0.000 0.000000 0.000000 0.000 0.000 0.000000 0.000000 0.000 0.000 0.000000 0.000000 1134864630.535181
ODOM 576.537 0.107 -2.255213 1134864630.745188
ODO_UPDATE 30 0.000 0.000 0.000000 0.000000 0.000 0.000 0.000000 0.000000 0.000 0.000 0.000000 0.000000 0.000 0.000 0.000000 0.000000 0.000 0.000 0.000000 0.000000 0.000 0.000 0.000000 0.000000 0.000 0.000 0.000000 0.000000 0.000 0.000 0.000000 0.000000 0.000 0.000 0.000000 0.000000 0.000 0.000 0.000000 0.000000 0.000 0.000 0.000000 0.000000 0.000 0.000 0.000000 0.000000 0.000 0.000 0.000000 0.000000 0.000 0.000 0.000000 0.000000 0.000 0.000 0.000000 0.000000 0.000 0.000 0.000000 0.000000 0.000 0.000 0.000000 0.000000 0.000 0.000 0.000000 0.000000 0.000 0.000 0.000000 0.000000 0.000 0.000 0.000000 0.000000 0.000 0.000 0.000000 0.000000 0.000 0.000 0.000000 0.000000 0.000 0.000 0.000000 0.000000 0.000 0.000 0.000000 0.000000 0.000 0.000 0.000000 0.000000 0.000 0.000 0.000000 0.000000 0.000 0.000 0.000000 0.000000 0.000 0.000 0.000000 0.000000 0.000 0.000 0.000000 0.000000 0.000 0.000 0.000000 0.000000 1134864630.745188
ODOM 576.537 0.107 -2.255213 1134864630.966179
ODO_UPDATE 30 0.000 0.000 0.000000 0.000000 0.000 0.000 0.000000 0.000000 0.000 0.000 0.000000 0.000000 0.000 0.000 0.000000 0.000000 0.000 0.000 0.000000 0.000000 0.000 0.000 0.000000 0.000000 0.000 0.000 0.000000 0.000000 0.000 0.000 0.000000 0.000000 0.000 0.000 0.000000 0.000000 0.000 0.000 0.000000 0.000000 0.000 0.000 0.000000 0.000000 0.000 0.000 0.000000 0.000000 0.000 0.000 0.000000 0.000000 0.000 0.000 0.000000 0.000000 0.000 0.000 0.000000 0.000000 0.000 0.000 0.000000 0.000000 0.000 0.000 0.000000 0.000000 0.000 0.000 0.000000 0.000000 0.000 0.000 0.000000 0.000000 0.000 0.000 0.000000 0.000000 0.000 0.000 0.000000 0.000000 0.000 0.000 0.000000 0.000000 0.000 0.000 0.000000 0.000000 0.000 0.000 0.000000 0.000000 0.000 0.000 0.000000 0.000000 0.000 0.000 0.000000 0.000000 0.000 0.000 0.000000 0.000000 0.000 0.000 0.000000 0.000000 0.000 0.000 0.000000 0.000000 0.000 0.000 0.000000 0.000000 1134864630.966179
ODOM 576.537 0.107 -2.255213 1134864631.175178
ODO_UPDATE 30 0.000 0.000 0.000000 0.000000 0.000 0.000 0.000000 0.000000 0.000 0.000 0.000000 0.000000 0.000 0.000 0.000000 0.000000 0.000 0.000 0.000000 0.000000 0.000 0.000 0.000000 0.000000 0.000 0.000 0.000000 0.000000 0.000 0.000 0.000000 0.000000 0.000 0.000 0.000000 0.000000 0.000 0.000 0.000000 0.000000 0.000 0.000 0.000000 0.000000 0.000 0.000 0.000000 0.000000 0.000 0.000 0.000000 0.000000 0.000 0.000 0.000000 0.000000 0.000 0.000 0.000000 0.000000 0.000 0.000 0.000000 0.000000 0.000 0.000 0.000000 0.000000 0.000 0.000 0.000000 0.000000 0.000 0.000 0.000000 0.000000 0.000 0.000 0.000000 0.000000 0.000 0.000 0.000000 0.000000 0.000 0.000 0.000000 0.000000 0.000 0.000 0.000000 0.000000 0.000 0.000 0.000000 0.000000 0.000 0.000 0.000000 0.000000 0.000 0.000 0.000000 0.000000 0.000 0.000 0.000000 0.000000 0.000 0.000 0.000000 0.000000 0.000 0.000 0.000000 0.000000 0.000 0.000 0.000000 0.000000 1134864631.175178
ODOM 576.537 0.107 -2.255213 1134864631.386179
ODO_UPDATE 30 0.000 0.000 0.000000 0.000000 0.000 0.000 0.000000 0.000000 0.000 0.000 0.000000 0.000000 0.000 0.000 0.000000 0.000000 0.000 0.000 0.000000 0.000000 0.000 0.000 0.000000 0.000000 0.000 0.000 0.000000 0.000000 0.000 0.000 0.000000 0.000000 0.000 0.000 0.000000 0.000000 0.000 0.000 0.000000 0.000000 0.000 0.000 0.000000 0.000000 0.000 0.000 0.000000 0.000000 0.000 0.000 0.000000 0.000000 0.000 0.000 0.000000 0.000000 0.000 0.000 0.000000 0.000000 0.000 0.000 0.000000 0.000000 0.000 0.000 0.000000 0.000000 0.000 0.000 0.000000 0.000000 0.000 0.000 0.000000 0.000000 0.000 0.000 0.000000 0.000000 0.000 0.000 0.000000 0.000000 0.000 0.000 0.000000 0.000000 0.000 0.000 0.000000 0.000000 0.000 0.000 0.000000 0.000000 0.000 0.000 0.000000 0.000000 0.000 0.000 0.000000 0.000000 0.000 0.000 0.000000 0.000000 0.000 0.000 0.000000 0.000000 0.000 0.000 0.000000 0.000000 0.000 0.000 0.000000 0.000000 1134864631.386179
ODOM 576.537 0.107 -2.255213 1134864631.606184
ODO_UPDATE 30 0.000 0.000 0.000000 0.000000 0.000 0.000 0.000000 0.000000 0.000 0.000 0.000000 0.000000 0.000 0.000 0.000000 0.000000 0.000 0.000 0.000000 0.000000 0.000 0.000 0.000000 0.000000 0.000 0.000 0.000000 0.000000 0.000 0.000 0.000000 0.000000 0.000 0.000 0.000000 0.000000 0.000 0.000 0.000000 0.000000 0.000 0.000 0.000000 0.000000 0.000 0.000 0.000000 0.000000 0.000 0.000 0.000000 0.000000 0.000 0.000 0.000000 0.000000 0.000 0.000 0.000000 0.000000 0.000 0.000 0.000000 0.000000 0.000 0.000 0.000000 0.000000 0.000 0.000 0.000000 0.000000 0.000 0.000 0.000000 0.000000 0.000 0.000 0.000000 0.000000 0.000 0.000 0.000000 0.000000 0.000 0.000 0.000000 0.000000 0.000 0.000 0.000000 0.000000 0.000 0.000 0.000000 0.000000 0.000 0.000 0.000000 0.000000 0.000 0.000 0.000000 0.000000 0.000 0.000 0.000000 0.000000 0.000 0.000 0.000000 0.000000 0.000 0.000 0.000000 0.000000 0.000 0.000 0.000000 0.000000 1134864631.606184
ODOM 576.537 0.107 -2.255213 1134864631.816181
ODO_UPDATE 30 0.000 0.000 0.000000 0.000000 0.000 0.000 0.000000 0.000000 0.000 0.000 0.000000 0.000000 0.000 0.000 0.000000 0.000000 0.000 0.000 0.000000 0.000000 0.000 0.000 0.000000 0.000000 0.000 0.000 0.000000 0.000000 0.000 0.000 0.000000 0.000000 0.000 0.000 0.000000 0.000000 0.000 0.000 0.000000 0.000000 0.000 0.000 0.000000 0.000000 0.000 0.000 0.000000 0.000000 0.000 0.000 0.000000 0.000000 0.000 0.000 0.000000 0.000000 0.000 0.000 0.000000 0.000000 0.000 0.000 0.000000 0.000000 0.000 0.000 0.000000 0.000000 0.000 0.000 0.000000 0.000000 0.000 0.000 0.000000 0.000000 0.000 0.000 0.000000 0.000000 0.000 0.000 0.000000 0.000000 0.000 0.000 0.000000 0.000000 0.000 0.000 0.000000 0.000000 0.000 0.000 0.000000 0.000000 0.000 0.000 0.000000 0.000000 0.000 0.000 0.000000 0.000000 0.000 0.000 0.000000 0.000000 0.000 0.000 0.000000 0.000000 0.000 0.000 0.000000 0.000000 0.000 0.000 0.000000 0.000000 1134864631.816181
ODOM 576.537 0.107 -2.255213 1134864632.026183
ODO_UPDATE 30 0.000 0.000 0.000000 0.000000 0.000 0.000 0.000000 0.000000 0.000 0.000 0.000000 0.000000 0.000 0.000 0.000000 0.000000 0.000 0.000 0.000000 0.000000 0.000 0.000 0.000000 0.000000 0.000 0.000 0.000000 0.000000 0.000 0.000 0.000000 0.000000 0.000 0.000 0.000000 0.000000 0.000 0.000 0.000000 0.000000 0.000 0.000 0.000000 0.000000 0.000 0.000 0.000000 0.000000 0.000 0.000 0.000000 0.000000 0.000 0.000 0.000000 0.000000 0.000 0.000 0.000000 0.000000 0.000 0.000 0.000000 0.000000 0.000 0.000 0.000000 0.000000 0.000 0.000 0.000000 0.000000 0.000 0.000 0.000000 0.000000 0.000 0.000 0.000000 0.000000 0.000 0.000 0.000000 0.000000 0.000 0.000 0.000000 0.000000 0.000 0.000 0.000000 0.000000 0.000 0.000 0.000000 0.000000 0.000 0.000 0.000000 0.000000 0.000 0.000 0.000000 0.000000 0.000 0.000 0.000000 0.000000 0.000 0.000 0.000000 0.000000 0.000 0.000 0.000000 0.000000 0.000 0.000 0.000000 0.000000 1134864632.026183
ODOM 576.537 0.107 -2.255213 1134864632.246207
ODO_UPDATE 30 0.000 0.000 0.000000 0.000000 0.000 0.000 0.000000 0.000000 0.000 0.000 0.000000 0.000000 0.000 0.000 0.000000 0.000000 0.000 0.000 0.000000 0.000000 0.000 0.000 0.000000 0.000000 0.000 0.000 0.000000 0.000000 0.000 0.000 0.000000 0.000000 0.000 0.000 0.000000 0.000000 0.000 0.000 0.000000 0.000000 0.000 0.000 0.000000 0.000000 0.000 0.000 0.000000 0.000000 0.000 0.000 0.000000 0.000000 0.000 0.000 0.000000 0.000000 0.000 0.000 0.000000 0.000000 0.000 0.000 0.000000 0.000000 0.000 0.000 0.000000 0.000000 0.000 0.000 0.000000 0.000000 0.000 0.000 0.000000 0.000000 0.000 0.000 0.000000 0.000000 0.000 0.000 0.000000 0.000000 0.000 0.000 0.000000 0.000000 0.000 0.000 0.000000 0.000000 0.000 0.000 0.000000 0.000000 0.000 0.000 0.000000 0.000000 0.000 0.000 0.000000 0.000000 0.000 0.000 0.000000 0.000000 0.000 0.000 0.000000 0.000000 0.000 0.000 0.000000 0.000000 0.000 0.000 0.000000 0.000000 1134864632.246207
ODOM 576.537 0.107 -2.255213 1134864632.456211
ODO_UPDATE 30 0.000 0.000 0.000000 0.000000 0.000 0.000 0.000000 0.000000 0.000 0.000 0.000000 0.000000 0.000 0.000 0.000000 0.000000 0.000 0.000 0.000000 0.000000 0.000 0.000 0.000000 0.000000 0.000 0.000 0.000000 0.000000 0.000 0.000 0.000000 0.000000 0.000 0.000 0.000000 0.000000 0.000 0.000 0.000000 0.000000 0.000 0.000 0.000000 0.000000 0.000 0.000 0.000000 0.000000 0.000 0.000 0.000000 0.000000 0.000 0.000 0.000000 0.000000 0.000 0.000 0.000000 0.000000 0.000 0.000 0.000000 0.000000 0.000 0.000 0.000000 0.000000 0.000 0.000 0.000000 0.000000 0.000 0.000 0.000000 0.000000 0.000 0.000 0.000000 0.000000 0.000 0.000 0.000000 0.000000 0.000 0.000 0.000000 0.000000 0.000 0.000 0.000000 0.000000 0.000 0.000 0.000000 0.000000 0.000 0.000 0.000000 0.000000 0.000 0.000 0.000000 0.000000 0.000 0.000 0.000000 0.000000 0.000 0.000 0.000000 0.000000 0.000 0.000 0.000000 0.000000 0.000 0.000 0.000000 0.000000 1134864632.456211
ODOM 576.537 0.107 -2.255213 1134864632.666323
ODO_UPDATE 30 0.000 0.000 0.000000 0.000000 0.000 0.000 0.000000 0.000000 0.000 0.000 0.000000 0.000000 0.000 0.000 0.000000 0.000000 0.000 0.000 0.000000 0.000000 0.000 0.000 0.000000 0.000000 0.000 0.000 0.000000 0.000000 0.000 0.000 0.000000 0.000000 0.000 0.000 0.000000 0.000000 0.000 0.000 0.000000 0.000000 0.000 0.000 0.000000 0.000000 0.000 0.000 0.000000 0.000000 0.000 0.000 0.000000 0.000000 0.000 0.000 0.000000 0.000000 0.000 0.000 0.000000 0.000000 0.000 0.000 0.000000 0.000000 0.000 0.000 0.000000 0.000000 0.000 0.000 0.000000 0.000000 0.000 0.000 0.000000 0.000000 0.000 0.000 0.000000 0.000000 0.000 0.000 0.000000 0.000000 0.000 0.000 0.000000 0.000000 0.000 0.000 0.000000 0.000000 0.000 0.000 0.000000 0.000000 0.000 0.000 0.000000 0.000000 0.000 0.000 0.000000 0.000000 0.000 0.000 0.000000 0.000000 0.000 0.000 0.000000 0.000000 0.000 0.000 0.000000 0.000000 0.000 0.000 0.000000 0.000000 1134864632.666323
ODOM 576.537 0.107 -2.255213 1134864632.886210
ODO_UPDATE 30 0.000 0.000 0.000000 0.000000 0.000 0.000 0.000000 0.000000 0.000 0.000 0.000000 0.000000 0.000 0.000 0.000000 0.000000 0.000 0.000 0.000000 0.000000 0.000 0.000 0.000000 0.000000 0.000 0.000 0.000000 0.000000 0.000 0.000 0.000000 0.000000 0.000 0.000 0.000000 0.000000 0.000 0.000 0.000000 0.000000 0.000 0.000 0.000000 0.000000 0.000 0.000 0.000000 0.000000 0.000 0.000 0.000000 0.000000 0.000 0.000 0.000000 0.000000 0.000 0.000 0.000000 0.000000 0.000 0.000 0.000000 0.000000 0.000 0.000 0.000000 0.000000 0.000 0.000 0.000000 0.000000 0.000 0.000 0.000000 0.000000 0.000 0.000 0.000000 0.000000 0.000 0.000 0.000000 0.000000 0.000 0.000 0.000000 0.000000 0.000 0.000 0.000000 0.000000 0.000 0.000 0.000000 0.000000 0.000 0.000 0.000000 0.000000 0.000 0.000 0.000000 0.000000 0.000 0.000 0.000000 0.000000 0.000 0.000 0.000000 0.000000 0.000 0.000 0.000000 0.000000 0.000 0.000 0.000000 0.000000 1134864632.886210
ODOM 576.537 0.107 -2.255213 1134864633.095199
ODO_UPDATE 30 0.000 0.000 0.000000 0.000000 0.000 0.000 0.000000 0.000000 0.000 0.000 0.000000 0.000000 0.000 0.000 0.000000 0.000000 0.000 0.000 0.000000 0.000000 0.000 0.000 0.000000 0.000000 0.000 0.000 0.000000 0.000000 0.000 0.000 0.000000 0.000000 0.000 0.000 0.000000 0.000000 0.000 0.000 0.000000 0.000000 0.000 0.000 0.000000 0.000000 0.000 0.000 0.000000 0.000000 0.000 0.000 0.000000 0.000000 0.000 0.000 0.000000 0.000000 0.000 0.000 0.000000 0.000000 0.000 0.000 0.000000 0.000000 0.000 0.000 0.000000 0.000000 0.000 0.000 0.000000 0.000000 0.000 0.000 0.000000 0.000000 0.000 0.000 0.000000 0.000000 0.000 0.000 0.000000 0.000000 0.000 0.000 0.000000 0.000000 0.000 0.000 0.000000 0.000000 0.000 0.000 0.000000 0.000000 0.000 0.000 0.000000 0.000000 0.000 0.000 0.000000 0.000000 0.000 0.000 0.000000 0.000000 0.000 0.000 0.000000 0.000000 0.000 0.000 0.000000 0.000000 0.000 0.000 0.000000 0.000000 1134864633.095199
ODOM 576.537 0.107 -2.255213 1134864633.305200
ODO_UPDATE 30 0.000 0.000 0.000000 0.000000 0.000 0.000 0.000000 0.000000 0.000 0.000 0.000000 0.000000 0.000 0.000 0.000000 0.000000 0.000 0.000 0.000000 0.000000 0.000 0.000 0.000000 0.000000 0.000 0.000 0.000000 0.000000 0.000 0.000 0.000000 0.000000 0.000 0.000 0.000000 0.000000 0.000 0.000 0.000000 0.000000 0.000 0.000 0.000000 0.000000 0.000 0.000 0.000000 0.000000 0.000 0.000 0.000000 0.000000 0.000 0.000 0.000000 0.000000 0.000 0.000 0.000000 0.000000 0.000 0.000 0.000000 0.000000 0.000 0.000 0.000000 0.000000 0.000 0.000 0.000000 0.000000 0.000 0.000 0.000000 0.000000 0.000 0.000 0.000000 0.000000 0.000 0.000 0.000000 0.000000 0.000 0.000 0.000000 0.000000 0.000 0.000 0.000000 0.000000 0.000 0.000 0.000000 0.000000 0.000 0.000 0.000000 0.000000 0.000 0.000 0.000000 0.000000 0.000 0.000 0.000000 0.000000 0.000 0.000 0.000000 0.000000 0.000 0.000 0.000000 0.000000 0.000 0.000 0.000000 0.000000 1134864633.305200
ODOM 576.537 0.107 -2.255213 1134864633.524218
ODO_UPDATE 30 0.000 0.000 0.000000 0.000000 0.000 0.000 0.000000 0.000000 0.000 0.000 0.000000 0.000000 0.000 0.000 0.000000 0.000000 0.000 0.000 0.000000 0.000000 0.000 0.000 0.000000 0.000000 0.000 0.000 0.000000 0.000000 0.000 0.000 0.000000 0.000000 0.000 0.000 0.000000 0.000000 0.000 0.000 0.000000 0.000000 0.000 0.000 0.000000 0.000000 0.000 0.000 0.000000 0.000000 0.000 0.000 0.000000 0.000000 0.000 0.000 0.000000 0.000000 0.000 0.000 0.000000 0.000000 0.000 0.000 0.000000 0.000000 0.000 0.000 0.000000 0.000000 0.000 0.000 0.000000 0.000000 0.000 0.000 0.000000 0.000000 0.000 0.000 0.000000 0.000000 0.000 0.000 0.000000 0.000000 0.000 0.000 0.000000 0.000000 0.000 0.000 0.000000 0.000000 0.000 0.000 0.000000 0.000000 0.000 0.000 0.000000 0.000000 0.000 0.000 0.000000 0.000000 0.000 0.000 0.000000 0.000000 0.000 0.000 0.000000 0.000000 0.000 0.000 0.000000 0.000000 0.000 0.000 0.000000 0.000000 1134864633.524218
ODOM 576.537 0.107 -2.255213 1134864633.734187
ODO_UPDATE 30 0.000 0.000 0.000000 0.000000 0.000 0.000 0.000000 0.000000 0.000 0.000 0.000000 0.000000 0.000 0.000 0.000000 0.000000 0.000 0.000 0.000000 0.000000 0.000 0.000 0.000000 0.000000 0.000 0.000 0.000000 0.000000 0.000 0.000 0.000000 0.000000 0.000 0.000 0.000000 0.000000 0.000 0.000 0.000000 0.000000 0.000 0.000 0.000000 0.000000 0.000 0.000 0.000000 0.000000 0.000 0.000 0.000000 0.000000 0.000 0.000 0.000000 0.000000 0.000 0.000 0.000000 0.000000 0.000 0.000 0.000000 0.000000 0.000 0.000 0.000000 0.000000 0.000 0.000 0.000000 0.000000 0.000 0.000 0.000000 0.000000 0.000 0.000 0.000000 0.000000 0.000 0.000 0.000000 0.000000 0.000 0.000 0.000000 0.000000 0.000 0.000 0.000000 0.000000 0.000 0.000 0.000000 0.000000 0.000 0.000 0.000000 0.000000 0.000 0.000 0.000000 0.000000 0.000 0.000 0.000000 0.000000 0.000 0.000 0.000000 0.000000 0.000 0.000 0.000000 0.000000 0.000 0.000 0.000000 0.000000 1134864633.734187
ODOM 576.537 0.107 -2.255213 1134864633.944184
ODO_UPDATE 30 0.000 0.000 0.000000 0.000000 0.000 0.000 0.000000 0.000000 0.000 0.000 0.000000 0.000000 0.000 0.000 0.000000 0.000000 0.000 0.000 0.000000 0.000000 0.000 0.000 0.000000 0.000000 0.000 0.000 0.000000 0.000000 0.000 0.000 0.000000 0.000000 0.000 0.000 0.000000 0.000000 0.000 0.000 0.000000 0.000000 0.000 0.000 0.000000 0.000000 0.000 0.000 0.000000 0.000000 0.000 0.000 0.000000 0.000000 0.000 0.000 0.000000 0.000000 0.000 0.000 0.000000 0.000000 0.000 0.000 0.000000 0.000000 0.000 0.000 0.000000 0.000000 0.000 0.000 0.000000 0.000000 0.000 0.000 0.000000 0.000000 0.000 0.000 0.000000 0.000000 0.000 0.000 0.000000 0.000000 0.000 0.000 0.000000 0.000000 0.000 0.000 0.000000 0.000000 0.000 0.000 0.000000 0.000000 0.000 0.000 0.000000 0.000000 0.000 0.000 0.000000 0.000000 0.000 0.000 0.000000 0.000000 0.000 0.000 0.000000 0.000000 0.000 0.000 0.000000 0.000000 0.000 0.000 0.000000 0.000000 1134864633.944184
ODOM 576.537 0.107 -2.255213 1134864634.165185
ODO_UPDATE 30 0.000 0.000 0.000000 0.000000 0.000 0.000 0.000000 0.000000 0.000 0.000 0.000000 0.000000 0.000 0.000 0.000000 0.000000 0.000 0.000 0.000000 0.000000 0.000 0.000 0.000000 0.000000 0.000 0.000 0.000000 0.000000 0.000 0.000 0.000000 0.000000 0.000 0.000 0.000000 0.000000 0.000 0.000 0.000000 0.000000 0.000 0.000 0.000000 0.000000 0.000 0.000 0.000000 0.000000 0.000 0.000 0.000000 0.000000 0.000 0.000 0.000000 0.000000 0.000 0.000 0.000000 0.000000 0.000 0.000 0.000000 0.000000 0.000 0.000 0.000000 0.000000 0.000 0.000 0.000000 0.000000 0.000 0.000 0.000000 0.000000 0.000 0.000 0.000000 0.000000 0.000 0.000 0.000000 0.000000 0.000 0.000 0.000000 0.000000 0.000 0.000 0.000000 0.000000 0.000 0.000 0.000000 0.000000 0.000 0.000 0.000000 0.000000 0.000 0.000 0.000000 0.000000 0.000 0.000 0.000000 0.000000 0.000 0.000 0.000000 0.000000 0.000 0.000 0.000000 0.000000 0.000 0.000 0.000000 0.000000 1134864634.165185
ODOM 576.537 0.107 -2.255213 1134864634.375186
ODO_UPDATE 30 0.000 0.000 0.000000 0.000000 0.000 0.000 0.000000 0.000000 0.000 0.000 0.000000 0.000000 0.000 0.000 0.000000 0.000000 0.000 0.000 0.000000 0.000000 0.000 0.000 0.000000 0.000000 0.000 0.000 0.000000 0.000000 0.000 0.000 0.000000 0.000000 0.000 0.000 0.000000 0.000000 0.000 0.000 0.000000 0.000000 0.000 0.000 0.000000 0.000000 0.000 0.000 0.000000 0.000000 0.000 0.000 0.000000 0.000000 0.000 0.000 0.000000 0.000000 0.000 0.000 0.000000 0.000000 0.000 0.000 0.000000 0.000000 0.000 0.000 0.000000 0.000000 0.000 0.000 0.000000 0.000000 0.000 0.000 0.000000 0.000000 0.000 0.000 0.000000 0.000000 0.000 0.000 0.000000 0.000000 0.000 0.000 0.000000 0.000000 0.000 0.000 0.000000 0.000000 0.000 0.000 0.000000 0.000000 0.000 0.000 0.000000 0.000000 0.000 0.000 0.000000 0.000000 0.000 0.000 0.000000 0.000000 0.000 0.000 0.000000 0.000000 0.000 0.000 0.000000 0.000000 0.000 0.000 0.000000 0.000000 1134864634.375186
ODOM 576.537 0.107 -2.255213 1134864634.585186
ODO_UPDATE 30 0.000 0.000 0.000000 0.000000 0.000 0.000 0.000000 0.000000 0.000 0.000 0.000000 0.000000 0.000 0.000 0.000000 0.000000 0.000 0.000 0.000000 0.000000 0.000 0.000 0.000000 0.000000 0.000 0.000 0.000000 0.000000 0.000 0.000 0.000000 0.000000 0.000 0.000 0.000000 0.000000 0.000 0.000 0.000000 0.000000 0.000 0.000 0.000000 0.000000 0.000 0.000 0.000000 0.000000 0.000 0.000 0.000000 0.000000 0.000 0.000 0.000000 0.000000 0.000 0.000 0.000000 0.000000 0.000 0.000 0.000000 0.000000 0.000 0.000 0.000000 0.000000 0.000 0.000 0.000000 0.000000 0.000 0.000 0.000000 0.000000 0.000 0.000 0.000000 0.000000 0.000 0.000 0.000000 0.000000 0.000 0.000 0.000000 0.000000 0.000 0.000 0.000000 0.000000 0.000 0.000 0.000000 0.000000 0.000 0.000 0.000000 0.000000 0.000 0.000 0.000000 0.000000 0.000 0.000 0.000000 0.000000 0.000 0.000 0.000000 0.000000 0.000 0.000 0.000000 0.000000 0.000 0.000 0.000000 0.000000 1134864634.585186
ODOM 576.537 0.107 -2.255213 1134864634.804189
ODO_UPDATE 30 0.000 0.000 0.000000 0.000000 0.000 0.000 0.000000 0.000000 0.000 0.000 0.000000 0.000000 0.000 0.000 0.000000 0.000000 0.000 0.000 0.000000 0.000000 0.000 0.000 0.000000 0.000000 0.000 0.000 0.000000 0.000000 0.000 0.000 0.000000 0.000000 0.000 0.000 0.000000 0.000000 0.000 0.000 0.000000 0.000000 0.000 0.000 0.000000 0.000000 0.000 0.000 0.000000 0.000000 0.000 0.000 0.000000 0.000000 0.000 0.000 0.000000 0.000000 0.000 0.000 0.000000 0.000000 0.000 0.000 0.000000 0.000000 0.000 0.000 0.000000 0.000000 0.000 0.000 0.000000 0.000000 0.000 0.000 0.000000 0.000000 0.000 0.000 0.000000 0.000000 0.000 0.000 0.000000 0.000000 0.000 0.000 0.000000 0.000000 0.000 0.000 0.000000 0.000000 0.000 0.000 0.000000 0.000000 0.000 0.000 0.000000 0.000000 0.000 0.000 0.000000 0.000000 0.000 0.000 0.000000 0.000000 0.000 0.000 0.000000 0.000000 0.000 0.000 0.000000 0.000000 0.000 0.000 0.000000 0.000000 1134864634.804189
ODOM 576.537 0.107 -2.255213 1134864635.014189
ODO_UPDATE 30 0.000 0.000 0.000000 0.000000 0.000 0.000 0.000000 0.000000 0.000 0.000 0.000000 0.000000 0.000 0.000 0.000000 0.000000 0.000 0.000 0.000000 0.000000 0.000 0.000 0.000000 0.000000 0.000 0.000 0.000000 0.000000 0.000 0.000 0.000000 0.000000 0.000 0.000 0.000000 0.000000 0.000 0.000 0.000000 0.000000 0.000 0.000 0.000000 0.000000 0.000 0.000 0.000000 0.000000 0.000 0.000 0.000000 0.000000 0.000 0.000 0.000000 0.000000 0.000 0.000 0.000000 0.000000 0.000 0.000 0.000000 0.000000 0.000 0.000 0.000000 0.000000 0.000 0.000 0.000000 0.000000 0.000 0.000 0.000000 0.000000 0.000 0.000 0.000000 0.000000 0.000 0.000 0.000000 0.000000 0.000 0.000 0.000000 0.000000 0.000 0.000 0.000000 0.000000 0.000 0.000 0.000000 0.000000 0.000 0.000 0.000000 0.000000 0.000 0.000 0.000000 0.000000 0.000 0.000 0.000000 0.000000 0.000 0.000 0.000000 0.000000 0.000 0.000 0.000000 0.000000 0.000 0.000 0.000000 0.000000 1134864635.014189
ODOM 576.537 0.107 -2.255213 1134864635.224184
ODO_UPDATE 30 0.000 0.000 0.000000 0.000000 0.000 0.000 0.000000 0.000000 0.000 0.000 0.000000 0.000000 0.000 0.000 0.000000 0.000000 0.000 0.000 0.000000 0.000000 0.000 0.000 0.000000 0.000000 0.000 0.000 0.000000 0.000000 0.000 0.000 0.000000 0.000000 0.000 0.000 0.000000 0.000000 0.000 0.000 0.000000 0.000000 0.000 0.000 0.000000 0.000000 0.000 0.000 0.000000 0.000000 0.000 0.000 0.000000 0.000000 0.000 0.000 0.000000 0.000000 0.000 0.000 0.000000 0.000000 0.000 0.000 0.000000 0.000000 0.000 0.000 0.000000 0.000000 0.000 0.000 0.000000 0.000000 0.000 0.000 0.000000 0.000000 0.000 0.000 0.000000 0.000000 0.000 0.000 0.000000 0.000000 0.000 0.000 0.000000 0.000000 0.000 0.000 0.000000 0.000000 0.000 0.000 0.000000 0.000000 0.000 0.000 0.000000 0.000000 0.000 0.000 0.000000 0.000000 0.000 0.000 0.000000 0.000000 0.000 0.000 0.000000 0.000000 0.000 0.000 0.000000 0.000000 0.000 0.000 0.000000 0.000000 1134864635.224184
ODOM 576.537 0.107 -2.255213 1134864635.444181
ODO_UPDATE 30 0.000 0.000 0.000000 0.000000 0.000 0.000 0.000000 0.000000 0.000 0.000 0.000000 0.000000 0.000 0.000 0.000000 0.000000 0.000 0.000 0.000000 0.000000 0.000 0.000 0.000000 0.000000 0.000 0.000 0.000000 0.000000 0.000 0.000 0.000000 0.000000 0.000 0.000 0.000000 0.000000 0.000 0.000 0.000000 0.000000 0.000 0.000 0.000000 0.000000 0.000 0.000 0.000000 0.000000 0.000 0.000 0.000000 0.000000 0.000 0.000 0.000000 0.000000 0.000 0.000 0.000000 0.000000 0.000 0.000 0.000000 0.000000 0.000 0.000 0.000000 0.000000 0.000 0.000 0.000000 0.000000 0.000 0.000 0.000000 0.000000 0.000 0.000 0.000000 0.000000 0.000 0.000 0.000000 0.000000 0.000 0.000 0.000000 0.000000 0.000 0.000 0.000000 0.000000 0.000 0.000 0.000000 0.000000 0.000 0.000 0.000000 0.000000 0.000 0.000 0.000000 0.000000 0.000 0.000 0.000000 0.000000 0.000 0.000 0.000000 0.000000 0.000 0.000 0.000000 0.000000 0.000 0.000 0.000000 0.000000 1134864635.444181
ODOM 576.537 0.107 -2.255213 1134864635.655185
ODO_UPDATE 30 0.000 0.000 0.000000 0.000000 0.000 0.000 0.000000 0.000000 0.000 0.000 0.000000 0.000000 0.000 0.000 0.000000 0.000000 0.000 0.000 0.000000 0.000000 0.000 0.000 0.000000 0.000000 0.000 0.000 0.000000 0.000000 0.000 0.000 0.000000 0.000000 0.000 0.000 0.000000 0.000000 0.000 0.000 0.000000 0.000000 0.000 0.000 0.000000 0.000000 0.000 0.000 0.000000 0.000000 0.000 0.000 0.000000 0.000000 0.000 0.000 0.000000 0.000000 0.000 0.000 0.000000 0.000000 0.000 0.000 0.000000 0.000000 0.000 0.000 0.000000 0.000000 0.000 0.000 0.000000 0.000000 0.000 0.000 0.000000 0.000000 0.000 0.000 0.000000 0.000000 0.000 0.000 0.000000 0.000000 0.000 0.000 0.000000 0.000000 0.000 0.000 0.000000 0.000000 0.000 0.000 0.000000 0.000000 0.000 0.000 0.000000 0.000000 0.000 0.000 0.000000 0.000000 0.000 0.000 0.000000 0.000000 0.000 0.000 0.000000 0.000000 0.000 0.000 0.000000 0.000000 0.000 0.000 0.000000 0.000000 1134864635.655185
ODOM 576.537 0.107 -2.255213 1134864635.865185
ODO_UPDATE 30 0.000 0.000 0.000000 0.000000 0.000 0.000 0.000000 0.000000 0.000 0.000 0.000000 0.000000 0.000 0.000 0.000000 0.000000 0.000 0.000 0.000000 0.000000 0.000 0.000 0.000000 0.000000 0.000 0.000 0.000000 0.000000 0.000 0.000 0.000000 0.000000 0.000 0.000 0.000000 0.000000 0.000 0.000 0.000000 0.000000 0.000 0.000 0.000000 0.000000 0.000 0.000 0.000000 0.000000 0.000 0.000 0.000000 0.000000 0.000 0.000 0.000000 0.000000 0.000 0.000 0.000000 0.000000 0.000 0.000 0.000000 0.000000 0.000 0.000 0.000000 0.000000 0.000 0.000 0.000000 0.000000 0.000 0.000 0.000000 0.000000 0.000 0.000 0.000000 0.000000 0.000 0.000 0.000000 0.000000 0.000 0.000 0.000000 0.000000 0.000 0.000 0.000000 0.000000 0.000 0.000 0.000000 0.000000 0.000 0.000 0.000000 0.000000 0.000 0.000 0.000000 0.000000 0.000 0.000 0.000000 0.000000 0.000 0.000 0.000000 0.000000 0.000 0.000 0.000000 0.000000 0.000 0.000 0.000000 0.000000 1134864635.865185
ODOM 576.537 0.107 -2.255213 1134864636.085183
ODO_UPDATE 30 0.000 0.000 0.000000 0.000000 0.000 0.000 0.000000 0.000000 0.000 0.000 0.000000 0.000000 0.000 0.000 0.000000 0.000000 0.000 0.000 0.000000 0.000000 0.000 0.000 0.000000 0.000000 0.000 0.000 0.000000 0.000000 0.000 0.000 0.000000 0.000000 0.000 0.000 0.000000 0.000000 0.000 0.000 0.000000 0.000000 0.000 0.000 0.000000 0.000000 0.000 0.000 0.000000 0.000000 0.000 0.000 0.000000 0.000000 0.000 0.000 0.000000 0.000000 0.000 0.000 0.000000 0.000000 0.000 0.000 0.000000 0.000000 0.000 0.000 0.000000 0.000000 0.000 0.000 0.000000 0.000000 0.000 0.000 0.000000 0.000000 0.000 0.000 0.000000 0.000000 0.000 0.000 0.000000 0.000000 0.000 0.000 0.000000 0.000000 0.000 0.000 0.000000 0.000000 0.000 0.000 0.000000 0.000000 0.000 0.000 0.000000 0.000000 0.000 0.000 0.000000 0.000000 0.000 0.000 0.000000 0.000000 0.000 0.000 0.000000 0.000000 0.000 0.000 0.000000 0.000000 0.000 0.000 0.000000 0.000000 1134864636.085183
ODOM 576.537 0.107 -2.255213 1134864636.294185
ODO_UPDATE 30 0.000 0.000 0.000000 0.000000 0.000 0.000 0.000000 0.000000 0.000 0.000 0.000000 0.000000 0.000 0.000 0.000000 0.000000 0.000 0.000 0.000000 0.000000 0.000 0.000 0.000000 0.000000 0.000 0.000 0.000000 0.000000 0.000 0.000 0.000000 0.000000 0.000 0.000 0.000000 0.000000 0.000 0.000 0.000000 0.000000 0.000 0.000 0.000000 0.000000 0.000 0.000 0.000000 0.000000 0.000 0.000 0.000000 0.000000 0.000 0.000 0.000000 0.000000 0.000 0.000 0.000000 0.000000 0.000 0.000 0.000000 0.000000 0.000 0.000 0.000000 0.000000 0.000 0.000 0.000000 0.000000 0.000 0.000 0.000000 0.000000 0.000 0.000 0.000000 0.000000 0.000 0.000 0.000000 0.000000 0.000 0.000 0.000000 0.000000 0.000 0.000 0.000000 0.000000 0.000 0.000 0.000000 0.000000 0.000 0.000 0.000000 0.000000 0.000 0.000 0.000000 0.000000 0.000 0.000 0.000000 0.000000 0.000 0.000 0.000000 0.000000 0.000 0.000 0.000000 0.000000 0.000 0.000 0.000000 0.000000 1134864636.294185
ODOM 576.537 0.107 -2.255213 1134864636.504180
ODO_UPDATE 30 0.000 0.000 0.000000 0.000000 0.000 0.000 0.000000 0.000000 0.000 0.000 0.000000 0.000000 0.000 0.000 0.000000 0.000000 0.000 0.000 0.000000 0.000000 0.000 0.000 0.000000 0.000000 0.000 0.000 0.000000 0.000000 0.000 0.000 0.000000 0.000000 0.000 0.000 0.000000 0.000000 0.000 0.000 0.000000 0.000000 0.000 0.000 0.000000 0.000000 0.000 0.000 0.000000 0.000000 0.000 0.000 0.000000 0.000000 0.000 0.000 0.000000 0.000000 0.000 0.000 0.000000 0.000000 0.000 0.000 0.000000 0.000000 0.000 0.000 0.000000 0.000000 0.000 0.000 0.000000 0.000000 0.000 0.000 0.000000 0.000000 0.000 0.000 0.000000 0.000000 0.000 0.000 0.000000 0.000000 0.000 0.000 0.000000 0.000000 0.000 0.000 0.000000 0.000000 0.000 0.000 0.000000 0.000000 0.000 0.000 0.000000 0.000000 0.000 0.000 0.000000 0.000000 0.000 0.000 0.000000 0.000000 0.000 0.000 0.000000 0.000000 0.000 0.000 0.000000 0.000000 0.000 0.000 0.000000 0.000000 1134864636.504180
ODOM 576.537 0.107 -2.255213 1134864636.724183
ODO_UPDATE 30 0.000 0.000 0.000000 0.000000 0.000 0.000 0.000000 0.000000 0.000 0.000 0.000000 0.000000 0.000 0.000 0.000000 0.000000 0.000 0.000 0.000000 0.000000 0.000 0.000 0.000000 0.000000 0.000 0.000 0.000000 0.000000 0.000 0.000 0.000000 0.000000 0.000 0.000 0.000000 0.000000 0.000 0.000 0.000000 0.000000 0.000 0.000 0.000000 0.000000 0.000 0.000 0.000000 0.000000 0.000 0.000 0.000000 0.000000 0.000 0.000 0.000000 0.000000 0.000 0.000 0.000000 0.000000 0.000 0.000 0.000000 0.000000 0.000 0.000 0.000000 0.000000 0.000 0.000 0.000000 0.000000 0.000 0.000 0.000000 0.000000 0.000 0.000 0.000000 0.000000 0.000 0.000 0.000000 0.000000 0.000 0.000 0.000000 0.000000 0.000 0.000 0.000000 0.000000 0.000 0.000 0.000000 0.000000 0.000 0.000 0.000000 0.000000 0.000 0.000 0.000000 0.000000 0.000 0.000 0.000000 0.000000 0.000 0.000 0.000000 0.000000 0.000 0.000 0.000000 0.000000 0.000 0.000 0.000000 0.000000 1134864636.724183
ODOM 576.537 0.107 -2.255213 1134864636.934182
ODO_UPDATE 30 -0.000 0.000 0.000000 0.000000 -0.000 0.000 -0.000000 0.000000 -0.000 0.000 -0.000000 0.000000 -0.000 0.000 -0.000000 0.000000 -0.000 0.000 0.000000 0.000000 -0.000 0.000 0.000000 0.000000 -0.000 0.000 0.000000 0.000000 -0.000 0.000 -0.000000 0.000000 -0.000 0.000 0.000000 0.000000 -0.000 0.000 0.000000 0.000000 -0.000 0.000 -0.000000 0.000000 -0.000 0.000 -0.000000 0.000000 -0.000 0.000 0.000000 0.000000 -0.000 0.000 0.000000 0.000000 -0.000 0.000 0.000000 0.000000 -0.000 0.000 0.000000 0.000000 -0.000 0.000 0.000000 0.000000 -0.000 0.000 0.000000 0.000000 -0.000 0.000 0.000000 0.000000 -0.000 0.000 -0.000000 0.000000 -0.000 0.000 -0.000000 0.000000 -0.000 0.000 0.000000 0.000000 -0.000 0.000 0.000000 0.000000 -0.000 0.000 -0.000000 0.000000 -0.000 0.000 -0.000000 0.000000 -0.000 0.000 0.000000 0.000000 -0.000 0.000 0.000000 0.000000 -0.000 0.000 0.000000 0.000000 -0.000 0.000 -0.000000 0.000000 -0.000 0.000 -0.000000 0.000000 1134864636.934182
ODOM 576.537 0.107 -2.255213 1134864637.154180
ODO_UPDATE 30 -0.000 0.000 -0.000001 0.000000 -0.000 0.000 0.000000 0.000000 -0.000 0.000 0.000000 0.000000 -0.000 0.000 -0.000000 0.000000 -0.000 0.000 0.000001 0.000000 -0.000 0.000 -0.000001 0.000000 -0.000 0.000 0.000001 0.000000 -0.000 0.000 -0.000000 0.000000 -0.000 0.000 0.000000 0.000000 -0.000 0.000 0.000001 0.000000 -0.000 0.000 0.000000 0.000000 -0.000 0.000 -0.000000 0.000000 -0.000 0.000 0.000001 0.000000 -0.000 0.000 -0.000000 0.000000 -0.000 0.000 0.000000 0.000000 -0.000 0.000 -0.000000 0.000000 -0.000 0.000 0.000002 0.000000 -0.000 0.000 0.000001 0.000000 -0.000 0.000 0.000000 0.000000 -0.000 0.000 -0.000001 0.000000 -0.000 0.000 -0.000000 0.000000 -0.000 0.000 -0.000000 0.000000 -0.000 0.000 0.000000 0.000000 -0.000 0.000 0.000000 0.000000 -0.000 0.000 0.000000 0.000000 -0.000 0.000 0.000000 0.000000 -0.000 0.000 -0.000000 0.000000 -0.000 0.000 0.000001 0.000000 -0.000 0.000 0.000000 0.000000 -0.000 0.000 -0.000000 0.000000 1134864637.154180
ODOM 576.537 0.107 -2.255213 1134864637.365184
ODO_UPDATE 30 -0.000 0.000 -0.000000 0.000000 -0.000 0.000 -0.000000 0.000000 -0.000 0.000 -0.000000 0.000000 -0.000 0.000 -0.000001 0.000000 -0.000 0.000 0.000002 0.000000 -0.000 0.000 -0.000001 0.000000 -0.000 0.000 0.000001 0.000000 -0.000 0.000 -0.000000 0.000000 -0.000 0.000 0.000000 0.000000 -0.000 -0.000 0.000001 0.000000 -0.000 0.000 0.000001 0.000000 -0.000 0.000 -0.000000 0.000000 -0.000 0.000 0.000001 0.000000 -0.000 0.000 0.000000 0.000000 -0.000 0.000 -0.000000 0.000000 -0.000 0.000 -0.000001 0.000000 -0.000 0.000 0.000002 0.000000 -0.000 0.000 0.000001 0.000000 -0.000 0.000 0.000000 0.000000 -0.000 -0.000 -0.000001 0.000000 -0.000 0.000 0.000000 0.000000 -0.000 0.000 -0.000001 0.000000 -0.000 0.000 -0.000000 0.000000 -0.000 0.000 -0.000000 0.000000 -0.000 0.000 0.000001 0.000000 -0.000 0.000 0.000000 0.000000 -0.000 0.000 -0.000001 0.000000 -0.000 0.000 0.000000 0.000000 -0.000 0.000 0.000001 0.000000 -0.000 0.000 -0.000000 0.000000 1134864637.365184
ODOM 576.537 0.107 -2.255213 1134864637.575181
ODO_UPDATE 30 0.000 -0.000 0.000000 0.000000 -0.000 0.000 -0.000000 0.000000 0.000 -0.000 0.000000 0.000000 0.000 0.000 -0.000000 0.000000 -0.000 0.000 0.000002 0.000000 0.000 -0.000 -0.000001 0.000000 0.000 0.000 0.000001 0.000000 -0.000 -0.000 -0.000001 0.000000 0.000 0.000 0.000001 0.000000 -0.000 -0.000 -0.000000 0.000000 -0.000 0.000 0.000001 0.000000 -0.000 0.000 -0.000000 0.000000 0.000 0.000 0.000002 0.000000 -0.000 -0.000 -0.000000 0.000000 0.000 0.000 0.000000 0.000000 -0.000 0.000 0.000002 0.000000 0.000 -0.000 0.000002 0.000000 -0.000 0.000 0.000000 0.000000 -0.000 -0.000 0.000001 0.000000 -0.000 -0.000 -0.000001 0.000000 -0.000 -0.000 0.000000 0.000000 -0.000 0.000 -0.000002 0.000000 0.000 -0.000 0.000000 0.000000 0.000 0.000 -0.000002 0.000000 -0.000 0.000 -0.000002 0.000000 -0.000 0.000 -0.000001 0.000000 0.000 0.000 -0.000001 0.000000 0.000 -0.000 -0.000000 0.000000 -0.000 -0.000 0.000002 0.000000 0.000 0.000 0.000001 0.000000 1134864637.575181
ODOM 576.537 0.107 -2.255213 1134864637.795184
ODO_UPDATE 30 -0.000 0.000 0.000033 0.000000 -0.000 0.000 0.000028 0.000000 -0.000 0.000 0.000028 0.000000 -0.000 -0.000 0.000032 0.000000 -0.000 0.000 0.000032 0.000000 -0.000 0.000 0.000025 0.000000 -0.000 0.000 0.000027 0.000000 -0.000 -0.000 0.000027 0.000000 -0.000 0.000 0.000035 0.000000 -0.000 -0.000 0.000030 0.000000 -0.000 0.000 0.000021 0.000000 -0.000 0.000 0.000035 0.000000 -0.000 0.000 0.000023 0.000000 -0.000 0.000 0.000025 0.000000 -0.000 0.000 0.000028 0.000000 -0.000 -0.000 0.000030 0.000000 -0.000 0.000 0.000030 0.000000 -0.000 0.000 0.000032 0.000000 -0.000 0.000 0.000026 0.000000 -0.000 -0.000 0.000027 0.000000 -0.000 0.000 0.000031 0.000000 -0.000 -0.000 0.000028 0.000000 -0.000 0.000 0.000028 0.000000 -0.000 0.000 0.000030 0.000000 -0.000 0.000 0.000026 0.000000 -0.000 0.000 0.000024 0.000000 -0.000 -0.000 0.000025 0.000000 -0.000 -0.000 0.000028 0.000000 -0.000 0.000 0.000024 0.000000 -0.000 -0.000 0.000030 0.000000 1134864637.795184
ODOM 576.537 0.107 -2.255185 1134864638.004182
ODO_UPDATE 30 0.000 0.000 0.000050 0.000000 0.000 0.000 0.000040 0.000000 0.000 0.000 0.000041 0.000000 0.000 -0.000 0.000051 0.000000 -0.000 0.000 0.000045 0.000000 -0.000 0.000 0.000038 0.000000 -0.000 0.000 0.000039 0.000000 -0.000 -0.000 0.000043 0.000000 0.000 -0.000 0.000046 0.000000 -0.000 0.000 0.000042 0.000000 0.000 0.000 0.000035 0.000000 0.000 -0.000 0.000048 0.000000 -0.000 0.000 0.000037 0.000000 -0.000 -0.000 0.000037 0.000000 0.000 -0.000 0.000043 0.000000 -0.000 -0.000 0.000044 0.000000 0.000 0.000 0.000044 0.000000 -0.000 0.000 0.000047 0.000000 0.000 0.000 0.000045 0.000000 0.000 -0.000 0.000043 0.000000 -0.000 -0.000 0.000045 0.000000 0.000 -0.000 0.000042 0.000000 -0.000 0.000 0.000041 0.000000 0.000 0.000 0.000045 0.000000 0.000 -0.000 0.000038 0.000000 0.000 -0.000 0.000039 0.000000 0.000 0.000 0.000037 0.000000 0.000 -0.000 0.000044 0.000000 -0.000 0.000 0.000039 0.000000 -0.000 0.000 0.000047 0.000000 1134864638.004182
ODOM 576.537 0.107 -2.255171 1134864638.215184
ODO_UPDATE 30 0.000 0.000 0.000010 0.000000 0.000 0.000 0.000005 0.000000 0.000 0.000 -0.000002 0.000000 0.000 -0.000 0.000006 0.000000 -0.000 0.000 0.000000 0.000000 -0.000 0.000 -0.000006 0.000000 -0.000 0.000 -0.000000 0.000000 0.000 -0.000 0.000005 0.000000 0.000 0.000 -0.000000 0.000000 -0.000 0.000 -0.000004 0.000000 0.000 0.000 -0.000008 0.000000 0.000 0.000 0.000006 0.000000 -0.000 0.000 -0.000004 0.000000 -0.000 -0.000 -0.000005 0.000000 0.000 -0.000 0.000003 0.000000 0.000 -0.000 0.000003 0.000000 0.000 0.000 0.000002 0.000000 -0.000 -0.000 0.000002 0.000000 -0.000 0.000 0.000000 0.000000 0.000 0.000 -0.000005 0.000000 -0.000 -0.000 0.000000 0.000000 0.000 0.000 0.000006 0.000000 -0.000 -0.000 -0.000010 0.000000 -0.000 -0.000 0.000006 0.000000 0.000 0.000 -0.000005 0.000000 0.000 -0.000 -0.000002 0.000000 0.000 0.000 -0.000006 0.000000 0.000 0.000 0.000002 0.000000 -0.000 0.000 -0.000011 0.000000 -0.000 0.000 0.000007 0.000000 1134864638.215184
ODOM 576.537 0.107 -2.255213 1134864638.434180
ODO_UPDATE 30 0.000 0.000 0.000010 0.000000 0.000 0.000 0.000005 0.000000 0.000 0.000 -0.000002 0.000000 0.000 -0.000 0.000006 0.000000 -0.000 0.000 0.000000 0.000000 -0.000 0.000 -0.000006 0.000000 -0.000 0.000 -0.000000 0.000000 0.000 -0.000 0.000005 0.000000 0.000 0.000 -0.000000 0.000000 -0.000 0.000 -0.000004 0.000000 0.000 0.000 -0.000008 0.000000 0.000 0.000 0.000006 0.000000 -0.000 0.000 -0.000004 0.000000 -0.000 -0.000 -0.000005 0.000000 0.000 -0.000 0.000003 0.000000 0.000 -0.000 0.000003 0.000000 0.000 0.000 0.000002 0.000000 -0.000 -0.000 0.000002 0.000000 -0.000 0.000 0.000000 0.000000 0.000 0.000 -0.000005 0.000000 -0.000 -0.000 0.000000 0.000000 0.000 0.000 0.000006 0.000000 -0.000 -0.000 -0.000010 0.000000 -0.000 -0.000 0.000006 0.000000 0.000 0.000 -0.000005 0.000000 0.000 -0.000 -0.000002 0.000000 0.000 0.000 -0.000006 0.000000 0.000 0.000 0.000002 0.000000 -0.000 0.000 -0.000011 0.000000 -0.000 0.000 0.000007 0.000000 1134864638.434180
ODOM 576.537 0.107 -2.255213 1134864638.645265
ODO_UPDATE 30 0.000 0.000 0.000010 0.000000 0.000 0.000 0.000005 0.000000 0.000 0.000 -0.000002 0.000000 0.000 -0.000 0.000006 0.000000 -0.000 0.000 0.000000 0.000000 -0.000 0.000 -0.000006 0.000000 -0.000 0.000 -0.000000 0.000000 0.000 -0.000 0.000005 0.000000 0.000 0.000 -0.000000 0.000000 -0.000 0.000 -0.000004 0.000000 0.000 0.000 -0.000008 0.000000 0.000 0.000 0.000006 0.000000 -0.000 0.000 -0.000004 0.000000 -0.000 -0.000 -0.000005 0.000000 0.000 -0.000 0.000003 0.000000 0.000 -0.000 0.000003 0.000000 0.000 0.000 0.000002 0.000000 -0.000 -0.000 0.000002 0.000000 -0.000 0.000 0.000000 0.000000 0.000 0.000 -0.000005 0.000000 -0.000 -0.000 0.000000 0.000000 0.000 0.000 0.000006 0.000000 -0.000 -0.000 -0.000010 0.000000 -0.000 -0.000 0.000006 0.000000 0.000 0.000 -0.000005 0.000000 0.000 -0.000 -0.000002 0.000000 0.000 0.000 -0.000006 0.000000 0.000 0.000 0.000002 0.000000 -0.000 0.000 -0.000011 0.000000 -0.000 0.000 0.000007 0.000000 1134864638.645265
ODOM 576.537 0.107 -2.255213 1134864638.854208
ODO_UPDATE 30 0.000 0.000 0.000010 0.000000 0.000 0.000 0.000005 0.000000 0.000 0.000 -0.000002 0.000000 0.000 -0.000 0.000006 0.000000 -0.000 0.000 0.000000 0.000000 -0.000 0.000 -0.000006 0.000000 -0.000 0.000 -0.000000 0.000000 0.000 -0.000 0.000005 0.000000 0.000 0.000 -0.000000 0.000000 -0.000 0.000 -0.000004 0.000000 0.000 0.000 -0.000008 0.000000 0.000 0.000 0.000006 0.000000 -0.000 0.000 -0.000004 0.000000 -0.000 -0.000 -0.000005 0.000000 0.000 -0.000 0.000003 0.000000 0.000 -0.000 0.000003 0.000000 0.000 0.000 0.000002 0.000000 -0.000 -0.000 0.000002 0.000000 -0.000 0.000 0.000000 0.000000 0.000 0.000 -0.000005 0.000000 -0.000 -0.000 0.000000 0.000000 0.000 0.000 0.000006 0.000000 -0.000 -0.000 -0.000010 0.000000 -0.000 -0.000 0.000006 0.000000 0.000 0.000 -0.000005 0.000000 0.000 -0.000 -0.000002 0.000000 0.000 0.000 -0.000006 0.000000 0.000 0.000 0.000002 0.000000 -0.000 0.000 -0.000011 0.000000 -0.000 0.000 0.000007 0.000000 1134864638.854208
ODOM 576.537 0.107 -2.255213 1134864639.074206
ODO_UPDATE 30 0.000 0.000 0.000010 0.000000 0.000 0.000 0.000005 0.000000 0.000 0.000 -0.000002 0.000000 0.000 -0.000 0.000006 0.000000 -0.000 0.000 0.000000 0.000000 -0.000 0.000 -0.000006 0.000000 -0.000 0.000 -0.000000 0.000000 0.000 -0.000 0.000005 0.000000 0.000 0.000 -0.000000 0.000000 -0.000 0.000 -0.000004 0.000000 0.000 0.000 -0.000008 0.000000 0.000 0.000 0.000006 0.000000 -0.000 0.000 -0.000004 0.000000 -0.000 -0.000 -0.000005 0.000000 0.000 -0.000 0.000003 0.000000 0.000 -0.000 0.000003 0.000000 0.000 0.000 0.000002 0.000000 -0.000 -0.000 0.000002 0.000000 -0.000 0.000 0.000000 0.000000 0.000 0.000 -0.000005 0.000000 -0.000 -0.000 0.000000 0.000000 0.000 0.000 0.000006 0.000000 -0.000 -0.000 -0.000010 0.000000 -0.000 -0.000 0.000006 0.000000 0.000 0.000 -0.000005 0.000000 0.000 -0.000 -0.000002 0.000000 0.000 0.000 -0.000006 0.000000 0.000 0.000 0.000002 0.000000 -0.000 0.000 -0.000011 0.000000 -0.000 0.000 0.000007 0.000000 1134864639.074206
ODOM 576.537 0.107 -2.255213 1134864639.284205
ODO_UPDATE 30 0.000 0.000 0.000010 0.000000 0.000 0.000 0.000005 0.000000 0.000 0.000 -0.000002 0.000000 0.000 -0.000 0.000006 0.000000 -0.000 0.000 0.000000 0.000000 -0.000 0.000 -0.000006 0.000000 -0.000 0.000 -0.000000 0.000000 0.000 -0.000 0.000005 0.000000 0.000 0.000 -0.000000 0.000000 -0.000 0.000 -0.000004 0.000000 0.000 0.000 -0.000008 0.000000 0.000 0.000 0.000006 0.000000 -0.000 0.000 -0.000004 0.000000 -0.000 -0.000 -0.000005 0.000000 0.000 -0.000 0.000003 0.000000 0.000 -0.000 0.000003 0.000000 0.000 0.000 0.000002 0.000000 -0.000 -0.000 0.000002 0.000000 -0.000 0.000 0.000000 0.000000 0.000 0.000 -0.000005 0.000000 -0.000 -0.000 0.000000 0.000000 0.000 0.000 0.000006 0.000000 -0.000 -0.000 -0.000010 0.000000 -0.000 -0.000 0.000006 0.000000 0.000 0.000 -0.000005 0.000000 0.000 -0.000 -0.000002 0.000000 0.000 0.000 -0.000006 0.000000 0.000 0.000 0.000002 0.000000 -0.000 0.000 -0.000011 0.000000 -0.000 0.000 0.000007 0.000000 1134864639.284205
ODOM 576.537 0.107 -2.255213 1134864639.494204
ODO_UPDATE 30 -0.000 0.000 0.000007 0.000000 -0.000 0.000 0.000007 0.000000 -0.000 0.000 -0.000005 0.000000 -0.000 -0.000 0.000006 0.000000 -0.000 0.000 0.000001 0.000000 -0.000 0.000 -0.000007 0.000000 -0.000 0.000 0.000001 0.000000 -0.000 -0.000 0.000007 0.000000 -0.000 0.000 -0.000001 0.000000 -0.000 0.000 -0.000007 0.000000 -0.000 0.000 -0.000013 0.000000 -0.000 0.000 0.000007 0.000000 -0.000 0.000 -0.000004 0.000000 -0.000 -0.000 -0.000002 0.000000 -0.000 -0.000 0.000006 0.000000 -0.000 -0.000 0.000001 0.000000 -0.000 0.000 -0.000000 0.000000 -0.000 -0.000 0.000001 0.000000 -0.000 0.000 -0.000003 0.000000 -0.000 0.000 -0.000008 0.000000 -0.000 -0.000 0.000003 0.000000 -0.000 0.000 0.000005 0.000000 -0.000 -0.000 -0.000010 0.000000 -0.000 -0.000 0.000007 0.000000 -0.000 0.000 -0.000005 0.000000 -0.000 -0.000 -0.000000 0.000000 -0.000 0.000 -0.000007 0.000000 -0.000 -0.000 0.000003 0.000000 -0.000 -0.000 -0.000008 0.000000 -0.000 0.000 0.000005 0.000000 1134864639.494204
ODOM 576.537 0.107 -2.255213 1134864639.715202
ODO_UPDATE 30 0.000 0.000 0.000007 0.000000 -0.000 0.000 0.000005 0.000000 0.000 0.000 -0.000008 0.000000 0.000 -0.000 0.000004 0.000000 -0.000 0.000 0.000002 0.000000 -0.000 0.000 -0.000009 0.000000 -0.000 0.000 0.000002 0.000000 0.000 -0.000 0.000006 0.000000 0.000 0.000 -0.000001 0.000000 0.000 0.000 -0.000004 0.000000 0.000 0.000 -0.000014 0.000000 0.000 0.000 0.000006 0.000000 -0.000 0.000 -0.000002 0.000000 -0.000 -0.000 0.000003 0.000000 0.000 -0.000 0.000007 0.000000 0.000 -0.000 0.000002 0.000000 0.000 0.000 -0.000001 0.000000 -0.000 -0.000 0.000003 0.000000 -0.000 0.000 -0.000003 0.000000 0.000 0.000 -0.000009 0.000000 -0.000 -0.000 0.000005 0.000000 0.000 0.000 0.000006 0.000000 -0.000 -0.000 -0.000012 0.000000 -0.000 -0.000 0.000009 0.000000 -0.000 0.000 -0.000006 0.000000 0.000 -0.000 0.000001 0.000000 0.000 0.000 -0.000007 0.000000 0.000 0.000 -0.000000 0.000000 -0.000 0.000 -0.000005 0.000000 -0.000 0.000 0.000004 0.000000 1134864639.715202
ODOM 576.537 0.107 -2.255213 1134864639.923233
ODO_UPDATE 30 -0.000 0.000 -0.000008 0.000000 -0.000 0.000 0.000011 0.000000 -0.000 0.000 -0.000011 0.000000 -0.000 -0.000 0.000010 0.000000 -0.000 -0.000 0.000006 0.000000 -0.000 0.000 0.000017 0.000000 -0.000 0.000 -0.000005 0.000000 -0.000 -0.000 -0.000002 0.000000 -0.000 0.000 -0.000031 0.000000 -0.000 0.000 -0.000026 0.000000 -0.000 0.000 -0.000021 0.000000 -0.000 0.000 -0.000006 0.000000 -0.000 0.000 -0.000032 0.000000 -0.000 0.000 0.000004 0.000000 -0.000 0.000 0.000013 0.000000 -0.000 -0.000 -0.000032 0.000000 -0.000 0.000 -0.000027 0.000000 -0.000 -0.000 -0.000028 0.000000 -0.000 0.000 -0.000055 0.000000 -0.000 0.000 0.000003 0.000000 -0.000 -0.000 -0.000011 0.000000 -0.000 -0.000 0.000014 0.000000 -0.000 -0.000 -0.000024 0.000000 -0.000 -0.000 -0.000011 0.000000 -0.000 0.000 -0.000057 0.000000 -0.000 -0.000 -0.000017 0.000000 -0.000 0.000 -0.000010 0.000000 -0.000 0.000 0.000012 0.000000 -0.000 0.000 -0.000002 0.000000 -0.000 0.000 -0.000014 0.000000 1134864639.923233
ODOM 576.537 0.107 -2.255221 1134864640.134180
ODO_UPDATE 30 -0.000 0.000 -0.000044 0.000000 -0.000 -0.000 -0.000010 0.000000 -0.000 0.000 -0.000038 0.000000 -0.000 -0.000 -0.000004 0.000000 -0.000 0.000 -0.000004 0.000000 -0.000 0.000 0.000004 0.000000 -0.000 0.000 -0.000031 0.000000 -0.000 -0.000 -0.000026 0.000000 -0.000 0.000 -0.000048 0.000000 -0.000 -0.000 -0.000044 0.000000 -0.000 0.000 -0.000039 0.000000 -0.000 0.000 -0.000035 0.000000 -0.000 0.000 -0.000063 0.000000 -0.000 0.000 -0.000001 0.000000 -0.000 0.000 0.000008 0.000000 -0.000 0.000 -0.000048 0.000000 -0.000 0.000 -0.000058 0.000000 -0.000 -0.000 -0.000037 0.000000 -0.000 0.000 -0.000083 0.000000 -0.000 0.000 -0.000009 0.000000 -0.000 -0.000 -0.000037 0.000000 -0.000 0.000 0.000006 0.000000 -0.000 -0.000 -0.000050 0.000000 -0.000 -0.000 -0.000035 0.000000 -0.000 -0.000 -0.000079 0.000000 -0.000 -0.000 -0.000032 0.000000 -0.000 0.000 -0.000014 0.000000 -0.000 0.000 -0.000012 0.000000 -0.000 0.000 -0.000027 0.000000 -0.000 -0.000 -0.000018 0.000000 1134864640.134180
ODOM 576.537 0.107 -2.255241 1134864640.354178
ODO_UPDATE 30 -0.000 0.000 -0.000044 0.000000 -0.000 0.000 -0.000009 0.000000 -0.000 0.000 -0.000038 0.000000 -0.000 -0.000 -0.000005 0.000000 -0.000 0.000 -0.000004 0.000000 -0.000 0.000 0.000004 0.000000 -0.000 0.000 -0.000031 0.000000 -0.000 -0.000 -0.000024 0.000000 -0.000 0.000 -0.000048 0.000000 -0.000 -0.000 -0.000044 0.000000 -0.000 0.000 -0.000039 0.000000 -0.000 0.000 -0.000035 0.000000 -0.000 0.000 -0.000063 0.000000 -0.000 0.000 -0.000002 0.000000 -0.000 0.000 0.000007 0.000000 -0.000 0.000 -0.000048 0.000000 -0.000 0.000 -0.000058 0.000000 -0.000 -0.000 -0.000036 0.000000 -0.000 0.000 -0.000083 0.000000 -0.000 0.000 -0.000010 0.000000 -0.000 -0.000 -0.000036 0.000000 -0.000 0.000 0.000006 0.000000 -0.000 -0.000 -0.000049 0.000000 -0.000 -0.000 -0.000036 0.000000 -0.000 -0.000 -0.000079 0.000000 -0.000 -0.000 -0.000032 0.000000 -0.000 0.000 -0.000014 0.000000 -0.000 0.000 -0.000012 0.000000 -0.000 0.000 -0.000027 0.000000 -0.000 -0.000 -0.000018 0.000000 1134864640.354178
ODOM 576.537 0.107 -2.255241 1134864640.564182
ODO_UPDATE 30 -0.000 0.000 -0.000044 0.000000 -0.000 0.000 -0.000009 0.000000 -0.000 0.000 -0.000038 0.000000 -0.000 -0.000 -0.000005 0.000000 -0.000 0.000 -0.000004 0.000000 -0.000 0.000 0.000004 0.000000 -0.000 0.000 -0.000031 0.000000 -0.000 -0.000 -0.000024 0.000000 -0.000 0.000 -0.000048 0.000000 -0.000 -0.000 -0.000044 0.000000 -0.000 0.000 -0.000039 0.000000 -0.000 0.000 -0.000035 0.000000 -0.000 0.000 -0.000063 0.000000 -0.000 0.000 -0.000002 0.000000 -0.000 0.000 0.000007 0.000000 -0.000 0.000 -0.000048 0.000000 -0.000 0.000 -0.000058 0.000000 -0.000 -0.000 -0.000036 0.000000 -0.000 0.000 -0.000083 0.000000 -0.000 0.000 -0.000010 0.000000 -0.000 -0.000 -0.000036 0.000000 -0.000 0.000 0.000006 0.000000 -0.000 -0.000 -0.000049 0.000000 -0.000 -0.000 -0.000036 0.000000 -0.000 -0.000 -0.000079 0.000000 -0.000 -0.000 -0.000032 0.000000 -0.000 0.000 -0.000014 0.000000 -0.000 0.000 -0.000012 0.000000 -0.000 0.000 -0.000027 0.000000 -0.000 -0.000 -0.000018 0.000000 1134864640.564182
ODOM 576.537 0.107 -2.255241 1134864640.774618
ODO_UPDATE 30 -0.000 0.000 -0.000044 0.000000 -0.000 0.000 -0.000009 0.000000 -0.000 0.000 -0.000038 0.000000 -0.000 -0.000 -0.000005 0.000000 -0.000 0.000 -0.000004 0.000000 -0.000 0.000 0.000004 0.000000 -0.000 0.000 -0.000031 0.000000 -0.000 -0.000 -0.000024 0.000000 -0.000 0.000 -0.000048 0.000000 -0.000 -0.000 -0.000044 0.000000 -0.000 0.000 -0.000039 0.000000 -0.000 0.000 -0.000035 0.000000 -0.000 0.000 -0.000063 0.000000 -0.000 0.000 -0.000002 0.000000 -0.000 0.000 0.000007 0.000000 -0.000 0.000 -0.000048 0.000000 -0.000 0.000 -0.000058 0.000000 -0.000 -0.000 -0.000036 0.000000 -0.000 0.000 -0.000083 0.000000 -0.000 0.000 -0.000010 0.000000 -0.000 -0.000 -0.000036 0.000000 -0.000 0.000 0.000006 0.000000 -0.000 -0.000 -0.000049 0.000000 -0.000 -0.000 -0.000036 0.000000 -0.000 -0.000 -0.000079 0.000000 -0.000 -0.000 -0.000032 0.000000 -0.000 0.000 -0.000014 0.000000 -0.000 0.000 -0.000012 0.000000 -0.000 0.000 -0.000027 0.000000 -0.000 -0.000 -0.000018 0.000000 1134864640.774618
ODOM 576.537 0.107 -2.255241 1134864640.994177
ODO_UPDATE 30 -0.000 0.000 0.000134 0.000000 -0.000 -0.000 0.000150 0.000000 -0.000 -0.000 0.000136 0.000000 -0.000 -0.000 0.000203 0.000000 -0.000 0.000 0.000171 0.000000 -0.000 0.000 0.000153 0.000000 -0.000 0.000 0.000159 0.000000 -0.000 -0.000 0.000136 0.000000 -0.000 0.000 0.000120 0.000000 -0.000 0.000 0.000105 0.000000 -0.000 0.000 0.000146 0.000000 -0.000 0.000 0.000104 0.000000 -0.000 0.000 0.000105 0.000000 -0.000 0.000 0.000173 0.000000 -0.000 -0.000 0.000170 0.000000 -0.000 -0.000 0.000134 0.000000 -0.000 0.000 0.000113 0.000000 -0.000 0.000 0.000120 0.000000 -0.000 0.000 0.000082 0.000000 -0.000 0.000 0.000121 0.000000 -0.000 -0.000 0.000110 0.000000 -0.000 -0.000 0.000181 0.000000 -0.000 -0.000 0.000137 0.000000 -0.000 -0.000 0.000136 0.000000 -0.000 -0.000 0.000089 0.000000 -0.000 0.000 0.000119 0.000000 -0.000 0.000 0.000126 0.000000 -0.000 0.000 0.000169 0.000000 -0.000 0.000 0.000126 0.000000 -0.000 0.000 0.000129 0.000000 1134864640.994177
ODOM 576.537 0.107 -2.255079 1134864641.204226
ODO_UPDATE 30 -0.000 0.000 0.000257 0.000000 -0.000 -0.000 0.000292 0.000000 -0.000 -0.000 0.000257 0.000000 -0.000 0.000 0.000324 0.000000 -0.000 0.000 0.000310 0.000000 -0.000 0.000 0.000269 0.000000 -0.000 0.000 0.000272 0.000000 -0.000 -0.000 0.000243 0.000000 -0.000 0.000 0.000246 0.000000 -0.000 0.000 0.000247 0.000000 -0.000 0.000 0.000269 0.000000 -0.000 -0.000 0.000228 0.000000 -0.000 0.000 0.000225 0.000000 -0.000 0.000 0.000286 0.000000 -0.000 -0.000 0.000304 0.000000 -0.000 -0.000 0.000261 0.000000 -0.000 0.000 0.000238 0.000000 -0.000 0.000 0.000246 0.000000 -0.000 -0.000 0.000194 0.000000 -0.000 0.000 0.000248 0.000000 -0.000 -0.000 0.000230 0.000000 -0.000 -0.000 0.000293 0.000000 -0.000 -0.000 0.000259 0.000000 -0.000 -0.000 0.000256 0.000000 -0.000 -0.000 0.000207 0.000000 -0.000 0.000 0.000230 0.000000 -0.000 0.000 0.000239 0.000000 -0.000 0.000 0.000290 0.000000 -0.000 0.000 0.000257 0.000000 -0.000 0.000 0.000234 0.000000 1134864641.204226
ODOM 576.537 0.107 -2.254961 1134864641.414178
ODO_UPDATE 30 -0.000 0.000 0.001032 0.000000 0.000 0.000 0.001132 0.000000 0.000 0.000 0.000929 0.000000 0.000 0.000 0.001443 0.000000 -0.000 0.000 0.001108 0.000000 -0.000 -0.000 0.001152 0.000000 0.000 -0.000 0.001225 0.000000 0.000 0.000 0.000961 0.000000 0.000 0.000 0.001229 0.000000 -0.000 0.000 0.001100 0.000000 0.000 0.000 0.001199 0.000000 -0.000 -0.000 0.001195 0.000000 -0.000 -0.000 0.001270 0.000000 -0.000 -0.000 0.001042 0.000000 0.000 0.000 0.001044 0.000000 0.000 0.000 0.001096 0.000000 -0.000 -0.000 0.001057 0.000000 0.000 0.000 0.001078 0.000000 -0.000 -0.000 0.001084 0.000000 -0.000 0.000 0.001145 0.000000 0.000 0.000 0.001142 0.000000 -0.000 -0.000 0.001187 0.000000 -0.000 0.000 0.001271 0.000000 0.000 -0.000 0.001102 0.000000 0.000 -0.000 0.001054 0.000000 0.000 0.000 0.001162 0.000000 0.000 0.000 0.001147 0.000000 -0.000 -0.000 0.001133 0.000000 0.000 0.000 0.001297 0.000000 -0.000 0.000 0.001174 0.000000 1134864641.414178
ODOM 576.537 0.107 -2.254108 1134864641.634188
ODO_UPDATE 30 0.002 0.002 0.017929 0.000000 -0.001 -0.001 0.019053 0.000000 0.001 -0.002 0.018427 0.000000 -0.001 -0.001 0.014645 0.000000 0.000 0.004 0.017610 0.000000 -0.000 0.002 0.018651 0.000000 -0.003 -0.000 0.018795 0.000000 0.001 0.001 0.017404 0.000000 -0.001 -0.002 0.015131 0.000000 0.000 0.000 0.020904 0.000000 0.003 0.002 0.020340 0.000000 0.001 -0.001 0.019573 0.000000 0.004 0.004 0.018049 0.000000 0.000 -0.001 0.017432 0.000000 -0.001 0.001 0.020620 0.000000 -0.000 -0.001 0.018835 0.000000 0.001 -0.003 0.017438 0.000000 -0.001 -0.000 0.020100 0.000000 -0.001 0.001 0.019893 0.000000 0.001 -0.001 0.017366 0.000000 -0.002 -0.002 0.020313 0.000000 -0.001 0.001 0.021724 0.000000 0.001 -0.001 0.018020 0.000000 0.001 0.002 0.022343 0.000000 -0.001 0.000 0.017270 0.000000 0.002 0.001 0.020605 0.000000 0.003 -0.000 0.017485 0.000000 0.001 -0.000 0.018844 0.000000 0.001 -0.000 0.018000 0.000000 0.001 0.002 0.019410 0.000000 1134864641.634188
ODOM 576.536 0.106 -2.237311 1134864641.844187
ODO_UPDATE 30 0.004 -0.002 0.076785 0.000000 -0.004 -0.003 0.061098 0.000000 0.002 0.003 0.073036 0.000000 0.003 0.007 0.064539 0.000000 -0.003 0.002 0.071309 0.000000 0.008 -0.001 0.072547 0.000000 0.004 -0.009 0.067617 0.000000 0.004 -0.005 0.072153 0.000000 0.006 0.006 0.070273 0.000000 0.003 0.002 0.075598 0.000000 0.012 -0.005 0.072096 0.000000 0.010 -0.003 0.061898 0.000000 0.004 -0.001 0.071557 0.000000 -0.000 -0.001 0.071179 0.000000 -0.010 0.001 0.077560 0.000000 0.001 -0.009 0.073661 0.000000 0.004 -0.004 0.057808 0.000000 -0.004 0.014 0.070343 0.000000 -0.005 0.013 0.077943 0.000000 -0.006 0.001 0.062217 0.000000 0.007 -0.005 0.069855 0.000000 -0.001 0.002 0.078937 0.000000 0.008 0.006 0.073976 0.000000 0.002 0.004 0.074303 0.000000 0.003 0.002 0.067766 0.000000 0.003 0.001 0.064753 0.000000 0.008 0.004 0.067204 0.000000 0.006 0.006 0.073078 0.000000 0.007 0.007 0.068654 0.000000 -0.002 0.004 0.077518 0.000000 1134864641.844187
ODOM 576.535 0.104 -2.185831 1134864642.054186
ODO_UPDATE 30 0.019 -0.005 0.150000 0.000000 -0.006 -0.003 0.137829 0.000000 0.014 0.016 0.147373 0.000000 0.007 0.003 0.141856 0.000000 0.029 0.000 0.136548 0.000000 0.015 -0.005 0.142630 0.000000 0.011 -0.008 0.138443 0.000000 0.014 -0.000 0.147389 0.000000 0.003 0.015 0.126177 0.000000 0.014 0.007 0.155145 0.000000 0.020 -0.018 0.140353 0.000000 0.023 0.006 0.146679 0.000000 0.016 -0.009 0.149384 0.000000 0.007 0.004 0.123732 0.000000 0.003 -0.003 0.138593 0.000000 0.013 -0.011 0.148903 0.000000 0.010 -0.005 0.141271 0.000000 0.014 0.013 0.156812 0.000000 0.011 0.017 0.166687 0.000000 0.021 0.009 0.132227 0.000000 0.011 -0.010 0.140125 0.000000 0.011 -0.010 0.155810 0.000000 0.008 0.011 0.156723 0.000000 0.019 0.006 0.151922 0.000000 0.022 -0.010 0.148503 0.000000 0.001 -0.003 0.128322 0.000000 0.007 0.008 0.153118 0.000000 0.017 0.015 0.136834 0.000000 0.028 0.022 0.150754 0.000000 0.024 0.018 0.160387 0.000000 1134864642.054186
ODOM 576.530 0.097 -2.109528 1134864642.273180
ODO_UPDATE 30 0.045 -0.008 0.224282 0.000000 0.022 0.001 0.206638 0.000000 0.062 0.014 0.229724 0.000000 0.023 -0.010 0.234065 0.000000 0.051 0.008 0.230057 0.000000 0.054 -0.008 0.227240 0.000000 0.037 -0.002 0.205212 0.000000 0.039 0.020 0.230298 0.000000 0.039 0.026 0.204874 0.000000 0.037 0.012 0.225321 0.000000 0.039 -0.025 0.194891 0.000000 0.039 0.008 0.239214 0.000000 0.043 -0.006 0.240970 0.000000 0.025 0.008 0.218571 0.000000 0.024 0.006 0.214931 0.000000 0.047 -0.008 0.220883 0.000000 0.029 -0.008 0.219697 0.000000 0.047 0.036 0.240438 0.000000 0.026 0.020 0.254495 0.000000 0.033 0.018 0.193712 0.000000 0.023 -0.010 0.214249 0.000000 0.036 -0.007 0.229734 0.000000 0.042 0.012 0.238122 0.000000 0.029 0.013 0.222903 0.000000 0.049 -0.005 0.235670 0.000000 0.016 0.010 0.208647 0.000000 0.036 0.007 0.221032 0.000000 0.059 0.022 0.200228 0.000000 0.056 0.040 0.225336 0.000000 0.071 0.016 0.236492 0.000000 1134864642.273180
ODOM 576.518 0.075 -2.033673 1134864642.484184
