ODOM 0 0 0 0 0 0 1.13486e+09 pippo 1.13486e+09
ODOM 0 0 0 0 0 0 1.13486e+09 pippo 1.13486e+09
ODOM 0 0 0 0 0 0 1.13486e+09 pippo 1.13486e+09
ODOM 0 0 0 0 0 0 1.13486e+09 pippo 1.13486e+09
ODOM 0 0 0 0 0 0 1.13486e+09 pippo 1.13486e+09
ODOM 0 0 0 0 0 0 1.13486e+09 pippo 1.13486e+09
ODOM 0 0 0 0 0 0 1.13486e+09 pippo 1.13486e+09
ODOM 0 0 0 0 0 0 1.13486e+09 pippo 1.13486e+09
ODOM 0 0 0 0 0 0 1.13486e+09 pippo 1.13486e+09
ODOM 0 0 0 0 0 0 1.13486e+09 pippo 1.13486e+09
ODOM 0 0 0 0 0 0 1.13486e+09 pippo 1.13486e+09
ODOM 0 0 0 0 0 0 1.13486e+09 pippo 1.13486e+09
ODOM 0 0 0 0 0 0 1.13486e+09 pippo 1.13486e+09
ODOM 0 0 0 0 0 0 1.13486e+09 pippo 1.13486e+09
ODOM 0 0 0 0 0 0 1.13486e+09 pippo 1.13486e+09
ODOM 0 0 0 0 0 0 1.13486e+09 pippo 1.13486e+09
ODOM 0 0 0 0 0 0 1.13486e+09 pippo 1.13486e+09
ODOM 0 0 0 0 0 0 1.13486e+09 pippo 1.13486e+09
ODOM 0 0 0 0 0 0 1.13486e+09 pippo 1.13486e+09
ODOM 0 0 0 0 0 0 1.13486e+09 pippo 1.13486e+09
ODOM 0 0 0 0 0 0 1.13486e+09 pippo 1.13486e+09
ODOM 0 0 0 0 0 0 1.13486e+09 pippo 1.13486e+09
ODOM 0 0 0 0 0 0 1.13486e+09 pippo 1.13486e+09
ODOM 0 0 0 0 0 0 1.13486e+09 pippo 1.13486e+09
ODOM 0 0 0 0 0 0 1.13486e+09 pippo 1.13486e+09
ODOM 0 0 0 0 0 0 1.13486e+09 pippo 1.13486e+09
ODOM 0 0 0 0 0 0 1.13486e+09 pippo 1.13486e+09
ODOM 0 0 0 0 0 0 1.13486e+09 pippo 1.13486e+09
ODOM 0 0 0 0 0 0 1.13486e+09 pippo 1.13486e+09
ODOM 0 0 0 0 0 0 1.13486e+09 pippo 1.13486e+09
ODOM 0 0 0 0 0 0 1.13486e+09 pippo 1.13486e+09
ODOM 0 0 0 0 0 0 1.13486e+09 pippo 1.13486e+09
ODOM 0 0 0 0 0 0 1.13486e+09 pippo 1.13486e+09
ODOM -0 0 -0 0 0 0 1.13486e+09 pippo 1.13486e+09
ODOM -0 0 0 0 0 0 1.13486e+09 pippo 1.13486e+09
ODOM -0 0 -0 0 0 0 1.13486e+09 pippo 1.13486e+09
ODOM 0 -0 0 0 0 0 1.13486e+09 pippo 1.13486e+09
ODOM -0 0 2.8e-05 0 0 0 1.13486e+09 pippo 1.13486e+09
ODOM 0 0 4.1e-05 0 0 0 1.13486e+09 pippo 1.13486e+09
ODOM 0 0 -2e-06 0 0 0 1.13486e+09 pippo 1.13486e+09
ODOM 0 0 -2e-06 0 0 0 1.13486e+09 pippo 1.13486e+09
ODOM 0 0 -2e-06 0 0 0 1.13486e+09 pippo 1.13486e+09
ODOM 0 0 -2e-06 0 0 0 1.13486e+09 pippo 1.13486e+09
ODOM 0 0 -2e-06 0 0 0 1.13486e+09 pippo 1.13486e+09
ODOM 0 0 -2e-06 0 0 0 1.13486e+09 pippo 1.13486e+09
ODOM -0 0 -5e-06 0 0 0 1.13486e+09 pippo 1.13486e+09
ODOM 0 0 -8e-06 0 0 0 1.13486e+09 pippo 1.13486e+09
ODOM -0 0 -1.1e-05 0 0 0 1.13486e+09 pippo 1.13486e+09
ODOM -0 0 -3.8e-05 0 0 0 1.13486e+09 pippo 1.13486e+09
ODOM -0 0 -3.8e-05 0 0 0 1.13486e+09 pippo 1.13486e+09
ODOM -0 0 -3.8e-05 0 0 0 1.13486e+09 pippo 1.13486e+09
ODOM -0 0 -3.8e-05 0 0 0 1.13486e+09 pippo 1.13486e+09
ODOM -0 -0 0.000136 0 0 0 1.13486e+09 pippo 1.13486e+09
ODOM -0 -0 0.000257 0 0 0 1.13486e+09 pippo 1.13486e+09
ODOM 0 0 0.000929 0 0 0 1.13486e+09 pippo 1.13486e+09
ODOM 0.001 -0.002 0.018427 0 0 0 1.13486e+09 pippo 1.13486e+09
ODOM 0.002 0.003 0.073036 0 0 0 1.13486e+09 pippo 1.13486e+09
ODOM 0.014 0.016 0.147373 0 0 0 1.13486e+09 pippo 1.13486e+09
ODOM 0.062 0.014 0.229724 0 0 0 1.13486e+09 pippo 1.13486e+09
ODOM 0.091 0.074 0.445689 0 0 0 1.13486e+09 pippo 1.13486e+09
ODOM 0.125 0.097 0.577498 0 0 0 1.13486e+09 pippo 1.13486e+09
ODOM 0.229 0.132 0.756479 0 0 0 1.13486e+09 pippo 1.13486e+09
FLASER 361 81.91 81.91 81.91 81.91 81.91 81.91 81.91 81.91 81.91 81.91 81.91 81.91 81.91 81.91 81.91 81.91 81.91 81.91 81.91 81.91 81.91 81.91 81.91 81.91 81.91 81.91 81.91 81.91 81.91 81.91 81.91 81.91 81.91 81.91 81.91 81.91 81.91 81.91 81.91 1.64 1.64 1.61 1.61 1.61 1.62 1.68 1.62 3.05 3.03 3.17 3.15 3.28 3.26 3.41 3.4 3.56 3.55 3.56 3.57 3.51 3.52 3.48 3.49 3.46 3.46 3.43 3.43 3.41 3.41 3.39 3.4 3.37 3.37 2.78 3.01 3.32 3.09 5.9 5.85 6.37 6.37 6.25 6.25 6.39 6.28 6.8 6.89 6.54 6.85 6.21 6.21 6.2 6.2 6.19 6.19 6.21 6.21 4.21 4.3 4.19 4.19 4.18 4.19 4.2 4.19 4.19 4.19 4.19 4.2 2.52 2.56 2.49 2.49 4.21 4.2 4.21 4.21 4.22 4.23 4.23 4.23 4.24 4.24 4.25 4.25 4.27 4.27 4.28 4.29 4.29 4.3 4.32 4.32 4.34 4.34 4.36 4.37 4.38 4.39 4.42 4.42 4.44 4.45 3.04 3.04 2.53 2.53 2.63 2.51 4.53 2.79 4.56 4.56 4.72 4.72 4.82 4.79 3.04 3.04 4.91 4.91 2.66 4.96 2.63 2.64 5.06 5.06 5.09 5.08 5.22 5.19 6.89 6.91 6.44 6.47 6.34 6.36 6.22 6.23 6.05 6.08 5.82 5.83 5.74 5.75 5.67 5.68 5.67 5.66 5.67 5.68 5.57 5.58 5.48 5.48 5.38 5.39 5.3 5.31 5.22 5.23 4.47 4.48 4.42 4.44 4.36 4.36 4.29 4.3 4.24 4.25 4.19 4.2 4.13 4.14 4.09 4.09 4.04 4.05 4 4 3.96 3.96 3.92 3.92 3.88 3.89 3.85 3.86 3.81 3.82 3.78 3.78 3.75 3.75 3.7 3.7 3.68 3.68 3.65 3.66 3.63 3.63 3.6 3.61 3.59 3.59 3.57 3.57 3.54 3.55 3.53 3.53 3.51 3.52 3.53 3.53 3.92 3.91 4 4 3.98 3.99 3.97 3.97 3.97 3.97 4.46 4.46 5.43 5.43 6.22 6.19 7.66 7.63 6.07 6.07 6.21 6.2 6.08 6.07 6.14 6.14 6.26 6.34 6.19 6.24 11.84 11.84 11.87 11.88 11.58 11.57 2.65 2.65 2.62 2.62 2.63 2.63 2.61 2.61 2.69 2.7 2.83 2.83 3.44 3.45 3.23 3.23 3.25 3.25 3.21 3.22 3.2 3.21 3.18 3.18 3.15 3.15 3.13 3.13 3.1 3.11 3.09 3.08 3.05 3.05 3.05 3.05 3.03 3.03 3.02 3.02 3 3 2.99 2.99 2.97 2.97 2.97 2.96 2.96 2.96 2.95 2.94 2.94 2.94 2.94 2.94 2.93 2.93 2.92 2.92 2.93 2.93 2.92 2.92 2.92 2.92 2.14 2.12 0.154 0.068 0.562729 0.154 0.068 0.562729 1.13486e+09 pippo 1.13486e+09
ODOM 0.154 0.068 0.562729 0 0 0 0 pippo 0
NEFF 27.6666 0 pippo 0
ODOM 0.274 0.169 0.833935 0 0 0 1.13486e+09 pippo 1.13486e+09
ODOM 0.337 0.209 1.05351 0 0 0 1.13486e+09 pippo 1.13486e+09
ODOM 0.388 0.266 1.24445 0 0 0 1.13486e+09 pippo 1.13486e+09
FLASER 361 6.08 6.06 6.06 6.05 6.06 4.05 4.04 4.04 4.04 2.27 2.29 2.33 2.41 2.25 2.24 2.34 2.24 4.04 2.73 4.04 4.05 4.05 4.05 4.05 4.05 4.06 4.06 4.07 4.07 4.08 4.08 4.09 4.09 4.11 4.1 4.1 4.1 4.12 4.11 4.14 4.13 4.15 4.15 4.18 4.17 4.2 4.19 4.22 4.21 2.84 2.8 2.33 2.36 4.29 2.29 4.45 4.43 4.34 4.46 4.34 4.35 4.45 4.35 4.54 4.51 2.83 2.83 4.66 4.64 2.39 4.69 2.36 2.41 4.8 4.78 4.84 4.83 4.84 4.82 4.98 4.88 6.7 6.77 6.26 6.6 6.1 6.12 6 6.08 5.84 5.92 5.61 5.77 5.5 5.55 5.49 5.57 5.39 5.42 5.48 5.46 5.38 5.43 5.29 5.33 5.2 5.23 5.11 5.15 5.01 5.06 4.4 4.96 4.22 4.26 4.16 4.19 4.1 4.12 4.04 4.08 3.98 4.01 3.94 3.97 3.89 3.91 3.85 3.87 3.8 3.82 3.76 3.78 3.7 3.74 3.67 3.68 3.64 3.66 3.6 3.63 3.57 3.59 3.54 3.56 3.52 3.53 3.49 3.5 3.46 3.48 3.43 3.45 3.41 3.43 3.39 3.41 3.37 3.38 3.36 3.36 3.34 3.35 3.32 3.33 3.31 3.32 3.29 3.3 3.28 3.29 3.54 3.4 3.79 3.78 3.78 3.79 3.77 3.78 3.76 3.77 4.09 3.78 5.22 4.41 6.09 5.39 7.76 7.23 5.93 6.43 5.95 5.89 5.94 5.98 5.94 5.89 5.85 6.39 6.29 6.09 11.69 11.66 11.41 11.59 11.49 11.4 11.51 11.54 11.65 11.61 2.49 11.74 2.47 2.47 2.5 2.48 2.52 2.56 2.53 2.54 2.77 2.56 3.28 3.29 3.09 3.13 3.11 3.12 3.08 3.1 3.06 3.07 3.04 3.06 3.02 3.04 3 3.02 2.98 3 2.96 2.97 2.95 2.96 2.95 2.95 2.93 2.94 2.92 2.93 2.92 2.91 2.91 2.91 2.89 2.9 2.88 2.89 2.87 2.88 2.87 2.88 2.86 2.87 2.87 2.87 2.86 2.87 2.87 2.87 2.86 2.87 2.86 2.87 2.86 2.87 2.87 2.87 2.86 2.86 2.76 2.81 2.09 2.08 2.3 2.28 2.31 2.31 2.31 2.31 2.3 2.31 2.31 2.31 2.31 2.31 2.32 2.32 1.96 2.04 1.93 1.95 1.93 1.94 1.94 1.94 1.93 1.93 1.91 1.92 1.97 1.95 2.39 2.18 2.45 2.45 2.47 2.47 2.49 2.49 2.5 2.49 2.51 2.51 2.54 2.53 2.56 2.58 2.49 2.5 2.42 2.45 2.47 2.45 2.25 2.32 2.29 2.28 2.31 2.31 2.95 2.81 3.02 3.01 3 3.04 3.01 3.01 81.91 3.07 81.91 81.91 81.91 81.91 81.91 81.91 81.91 81.91 81.91 81.91 0.348 0.217 1.34445 0.348 0.217 1.34445 1.13486e+09 pippo 1.13486e+09
ODOM 0.348 0.217 1.34445 0 0 0 0 pippo 0
NEFF 27.1268 0 pippo 0
ODOM 0.347 0.318 1.54081 0 0 0 1.13486e+09 pippo 1.13486e+09
ODOM 0.37 0.456 1.74808 0 0 0 1.13486e+09 pippo 1.13486e+09
ODOM 0.345 0.488 2.01096 0 0 0 1.13486e+09 pippo 1.13486e+09
FLASER 361 6.57 5.96 6.06 5.92 5.97 5.74 5.82 5.59 5.67 5.37 5.43 5.42 5.35 5.24 5.27 5.29 5.26 5.24 5.29 5.15 5.2 5.04 5.09 4.93 4.98 4.85 4.89 4.11 4.8 4.02 4.06 3.96 3.99 3.9 3.93 3.84 3.88 3.78 3.81 3.71 3.76 3.67 3.69 3.62 3.65 3.57 3.6 3.53 3.55 3.49 3.51 3.45 3.47 3.42 3.43 3.37 3.4 3.35 3.37 3.32 3.33 3.28 3.3 3.25 3.27 3.22 3.24 3.21 3.21 3.18 3.2 3.16 3.17 3.14 3.15 3.11 3.13 3.09 3.11 3.07 3.09 3.06 3.07 3.04 3.05 3.03 3.04 3.02 3.03 3.24 3.09 3.5 3.41 3.51 3.52 3.5 3.51 3.49 3.49 3.46 3.49 3.94 3.68 4.92 4.89 5.63 4.99 7.16 6.44 5.7 5.85 5.62 5.53 5.7 5.75 5.59 5.61 6.07 5.69 5.67 5.73 5.64 5.77 11.41 11.41 11.1 11.14 11.32 11.2 11.27 11.23 11.42 11.37 2.21 81.91 2.2 2.18 2.16 2.17 2.18 2.18 2.18 2.19 2.23 2.2 2.63 2.34 2.82 2.85 2.8 2.82 2.83 2.84 2.81 2.83 2.8 2.81 2.78 2.79 2.76 2.77 2.75 2.76 2.73 2.74 2.73 2.74 2.7 2.72 2.7 2.7 2.69 2.69 2.67 2.68 2.67 2.68 2.66 2.67 2.65 2.66 2.65 2.65 2.65 2.64 2.64 2.64 2.64 2.65 2.64 2.64 2.64 2.65 2.64 2.65 2.64 2.65 2.64 2.65 2.64 2.65 2.65 2.66 2.65 2.65 2.64 2.64 2.65 2.65 2.57 2.62 2.65 2.62 1.9 2.02 1.89 1.89 2.07 2.07 2.08 2.07 2.1 2.09 2.11 2.11 2.12 2.11 2.14 2.13 2.16 2.15 2.17 2.17 1.79 1.82 1.78 1.78 1.78 1.78 1.76 1.77 1.76 1.76 1.75 1.77 1.76 1.76 2.28 2.23 2.32 2.31 2.34 2.33 2.36 2.36 2.38 2.37 2.39 2.38 2.43 2.38 2.39 2.38 2.32 2.33 2.26 2.26 2.26 2.27 2.17 2.22 2.2 2.2 2.21 2.21 2.82 2.6 2.91 2.9 2.96 2.94 81.91 81.91 81.91 81.91 81.91 81.91 81.91 81.91 81.91 81.91 2.59 2.6 3.07 81.91 3.06 3.09 3.05 3.04 3.02 3.02 2.94 2.97 2.93 2.93 2.93 2.9 3.02 2.99 3.12 3.09 4.76 4.79 4.64 4.68 4.53 4.57 4.56 4.54 4.62 4.6 4.67 4.67 4.07 4.21 4.09 4.08 4.1 4.1 4.1 4.14 4.11 4.11 7.01 7.03 7.1 6.96 6.41 7.25 6.31 6.33 6.18 6.21 6.17 6.15 6.26 6.22 6.39 6.34 6.43 6.45 2.71 81.91 2.61 2.62 2.53 2.55 2.49 2.47 2.5 2.52 0.339 0.496 2.02033 0.339 0.496 2.02033 1.13486e+09 pippo 1.13486e+09
ODOM 0.339 0.496 2.02033 0 0 0 0 pippo 0
NEFF 26.5034 0 pippo 0
ODOM 0.291 0.625 2.27575 0 0 0 1.13486e+09 pippo 1.13486e+09
ODOM 0.227 0.667 2.73116 0 0 0 1.13486e+09 pippo 1.13486e+09
ODOM 0.104 0.722 2.87805 0 0 0 1.13486e+09 pippo 1.13486e+09
FLASER 361 2.92 2.89 2.9 2.98 2.91 3.17 3.11 3.36 3.31 3.36 3.37 3.35 3.35 3.33 3.34 3.31 3.31 3.55 3.47 3.91 3.81 4.76 4.78 4.97 4.77 5.75 5.58 6.74 6.51 5.41 5.54 5.54 5.42 5.46 5.57 5.43 5.42 5.75 5.73 5.45 5.42 5.42 5.48 11.17 11.17 11.25 11.24 2.02 10.9 1.96 1.97 1.93 1.95 1.93 1.94 1.92 1.93 1.92 1.91 1.98 1.97 2.04 2.02 2.29 2.18 2.64 2.65 2.56 2.57 2.59 2.61 2.57 2.58 2.56 2.56 2.53 2.55 2.53 2.53 2.5 2.51 2.49 2.49 2.48 2.49 2.47 2.48 2.46 2.46 2.44 2.44 2.41 2.42 2.41 2.42 2.4 2.41 2.38 2.4 2.37 2.38 2.37 2.38 2.37 2.38 2.37 2.37 2.36 2.37 2.36 2.37 2.36 2.36 2.36 2.36 2.36 2.37 2.36 2.36 2.36 2.36 2.36 2.36 2.36 2.36 2.36 2.37 2.36 2.36 2.36 2.36 2.36 2.37 2.28 2.31 2.34 2.32 2.31 2.35 1.62 1.63 1.6 1.61 1.54 1.56 1.52 1.54 1.52 1.53 1.51 1.53 1.51 1.52 1.5 1.51 1.51 1.49 1.54 1.55 1.67 1.62 1.51 1.59 1.51 1.52 1.51 1.52 1.51 1.51 1.5 1.51 1.51 1.51 1.51 1.51 1.5 1.5 2 1.96 1.99 2 1.96 1.97 1.92 1.94 1.86 1.87 1.82 1.83 1.75 1.76 1.76 1.77 1.79 1.78 1.8 1.8 1.82 1.83 1.88 1.88 1.92 1.96 1.96 1.97 1.98 1.99 2.38 2.35 2.71 2.72 81.91 81.91 81.91 81.91 81.91 81.91 81.91 81.91 81.91 81.91 81.91 81.91 2.42 2.43 2.81 81.91 2.85 2.86 2.84 2.86 2.81 2.83 2.77 2.78 2.75 2.76 2.73 2.74 2.83 2.82 2.93 2.93 4.45 4.46 4.36 4.37 4.42 4.41 4.48 4.47 4.55 4.55 3.97 4.01 3.95 3.95 3.98 3.98 3.99 4.02 81.91 81.91 8.3 8.32 7.14 7.15 6.17 6.18 6.07 6.09 6.01 6.01 6.09 6.08 6.23 6.21 6.4 6.33 6.04 6.03 81.91 81.91 81.91 81.91 9.67 9.67 2.59 2.6 2.53 2.54 2.47 2.48 2.41 2.4 2.56 2.56 2.49 2.49 2.49 2.49 2.58 2.58 2.54 2.54 10.76 10.75 10.85 10.84 6.75 6.79 6.39 6.44 5.09 9.46 4.88 4.89 4.82 4.83 2.82 2.81 2.77 2.77 2.73 2.73 2.69 2.68 2.64 2.65 2.62 2.61 2.57 2.57 2.55 2.54 2.5 2.49 2.48 2.47 2.56 2.55 2.61 2.61 2.75 2.75 2.72 2.72 2.82 2.82 2.95 2.95 3.1 3.09 3.26 3.25 3.54 3.52 3.64 3.65 7.11 7.11 0.151 0.734 2.69055 0.151 0.734 2.69055 1.13486e+09 pippo 1.13486e+09
ODOM 0.151 0.734 2.69055 0 0 0 0 pippo 0
NEFF 25.0568 0 pippo 0
ODOM 0.061 0.814 2.8064 0 0 0 1.13486e+09 pippo 1.13486e+09
ODOM -0.026 0.884 2.94467 0 0 0 1.13486e+09 pippo 1.13486e+09
ODOM -0.159 0.9 3.04499 0 0 0 1.13486e+09 pippo 1.13486e+09
ODOM -0.341 0.919 3.11754 0 0 0 1.13486e+09 pippo 1.13486e+09
ODOM -0.412 0.908 3.28323 0 0 0 1.13486e+09 pippo 1.13486e+09
ODOM -0.541 0.859 3.36594 0 0 0 1.13486e+09 pippo 1.13486e+09
FLASER 361 1.07 1.05 1.05 1.01 1.01 1 1.01 0.99 0.98 1.02 1.01 1.06 1.05 1.13 1.09 1.24 1.16 0.97 1.26 0.95 0.97 0.95 0.95 0.94 0.94 0.93 0.93 0.92 0.92 0.9 0.91 0.9 0.91 0.9 0.91 0.89 0.89 0.87 0.89 0.89 0.88 81.91 0.99 81.91 81.91 81.91 81.91 81.91 81.91 1.37 81.91 1.38 1.37 1.38 1.37 1.37 1.37 1.36 1.38 1.34 1.35 1.32 1.33 1.26 1.3 1.16 1.22 1.13 1.14 1.11 1.12 1.09 1.1 1.15 1.15 1.08 1.08 1.08 1.08 1.08 1.08 1.1 1.09 1.1 1.12 1.12 1.12 1.2 1.16 81.91 81.91 1.2 81.91 81.91 1.18 81.91 81.91 81.91 81.91 81.91 81.91 1.86 1.9 1.9 1.91 1.93 1.93 1.96 1.97 2.06 1.98 81.91 81.91 81.91 81.91 81.91 81.91 81.91 81.91 81.91 81.91 81.91 81.91 81.91 81.91 81.91 81.91 1.61 1.64 81.91 81.91 2.1 2.11 2.09 2.1 2.07 2.09 2.02 2.06 2.02 2.04 1.99 2 1.98 2 1.96 1.98 2.02 2.02 2.11 2.12 2.28 2.22 3.6 3.61 3.66 3.66 3.71 3.71 3.8 3.8 3.86 3.87 3.28 3.33 3.21 3.23 3.23 3.23 3.24 3.26 3.28 3.29 3.32 3.31 5.53 5.54 5.46 5.47 5.36 5.38 5.34 5.34 5.45 5.45 5.58 5.58 5.7 5.69 5.37 5.39 81.91 81.91 9.05 9.07 9 9.07 8.6 8.61 8.54 8.54 8.54 8.54 8.15 8.27 7.84 7.86 7.63 7.63 6.21 7.74 6 6.01 2 2 1.93 1.96 1.96 1.96 1.9 1.89 1.87 1.87 1.83 1.84 2.04 2.05 1.89 1.9 1.89 1.89 1.94 1.94 2.02 2.02 4.36 4.36 8.85 8.86 4.68 4.66 4.67 4.68 4.51 4.52 7.34 7.36 7.21 7.22 2.39 2.38 2.35 2.35 2.31 2.32 2.29 2.29 2.27 2.27 2.25 2.25 2.23 2.23 2.22 2.23 2.21 2.21 2.19 2.19 2.18 2.18 2.16 2.16 2.14 2.15 2.27 2.29 2.38 2.44 2.47 2.47 2.69 2.76 3.42 3.43 5.69 5.7 5.63 5.64 5.62 5.63 3.99 3.98 81.91 81.91 3.69 3.7 3.7 3.71 3.69 3.7 3.66 3.67 3.29 2.97 2.84 2.82 2.93 2.96 4.57 4.58 2.97 2.97 6.13 6.15 6.13 6.13 2.2 2.2 2.2 2.21 2.21 2.22 2.22 2.22 2.23 2.23 2.24 2.24 2.24 2.25 2.26 2.27 2.27 2.28 2.29 2.29 2.29 2.3 1.91 1.91 1.89 1.89 1.91 1.91 1.95 1.96 2.21 2.21 2.2 2.2 2.19 2.19 2.18 2.19 2.18 2.19 2.24 2.24 2.18 2.17 -0.589 0.761 3.52532 -0.589 0.761 3.52532 1.13486e+09 pippo 1.13486e+09
ODOM -0.589 0.761 3.52532 0 0 0 0 pippo 0
NEFF 24.7721 0 pippo 0
ODOM -0.749 0.712 3.60423 0 0 0 1.13486e+09 pippo 1.13486e+09
ODOM -0.89 0.638 3.59136 0 0 0 1.13486e+09 pippo 1.13486e+09
ODOM -1.04 0.569 3.6103 0 0 0 1.13486e+09 pippo 1.13486e+09
ODOM -1.127 0.528 3.64032 0 0 0 1.13486e+09 pippo 1.13486e+09
ODOM -1.27 0.436 3.6449 0 0 0 1.13486e+09 pippo 1.13486e+09
ODOM -1.425 0.35 3.65497 0 0 0 1.13486e+09 pippo 1.13486e+09
ODOM -1.511 0.3 3.67369 0 0 0 1.13486e+09 pippo 1.13486e+09
FLASER 361 0.84 1 1.08 1.15 1.2 1.21 1.23 1.26 1.27 1.28 1.29 1.27 1.29 1.28 1.29 1.29 1.3 1.29 1.3 1.29 1.3 81.91 1.2 81.91 81.91 81.91 81.91 81.91 81.91 81.91 81.91 81.91 81.91 81.91 81.91 1.84 1.85 1.85 1.86 1.86 1.88 1.89 1.9 1.9 1.91 2 1.97 1.96 1.97 1.99 2.04 2.1 81.91 1.31 1.3 1.29 1.29 1.25 1.26 1.23 1.24 81.91 81.91 81.91 81.91 81.91 1.15 1.13 1.13 1.11 1.11 1.08 1.08 1.05 1.05 1.05 1.04 1.02 1.03 1.01 1.02 1.03 1.04 1.05 1.05 1.06 1.07 1.09 1.1 1.11 1.14 1.13 1.14 1.15 1.16 1.17 1.18 1.18 1.2 4.26 4.29 81.91 81.91 81.91 81.91 2.9 81.91 2.96 2.97 81.91 81.91 2.82 2.8 2.75 2.73 2.67 2.65 2.6 2.58 2.54 2.56 2.56 2.58 2.59 2.61 2.63 2.65 2.67 2.69 2.67 2.37 2.21 2.08 2.08 2.09 2.1 2.1 2.08 2.09 2.11 2.11 2.13 2.13 2.14 2.14 2.17 2.17 81.91 81.91 5.36 5.33 5.31 4.68 4.45 4.38 4.32 4.33 4.26 4.24 4.2 4.18 4.16 4.2 4.23 4.3 4.33 4.41 4.43 4.47 4.53 4.54 4.23 4.22 81.91 81.91 81.91 7.93 7.92 7.94 7.58 7.49 7.43 7.41 7.38 7.38 7.39 7.42 7.39 6.89 6.74 6.72 6.5 6.47 6.52 6.58 6.6 6.64 4.87 4.88 4.85 4.82 4.78 4.76 4.74 4.76 4.75 9.27 8.23 8.01 7.9 7.91 7.8 7.89 7.86 7.97 8.05 8.58 8.49 8.41 8.32 8.25 8.17 8.1 8.03 7.98 0.93 0.9 0.9 0.9 0.88 0.89 0.86 0.88 0.86 0.88 0.88 0.87 0.87 0.86 0.86 0.85 0.86 0.89 0.9 0.9 0.86 0.91 0.88 0.84 0.83 0.81 0.81 0.81 0.81 0.81 0.79 1.05 1.05 1.04 1.03 1.04 1.04 0.98 0.97 0.94 0.93 0.91 0.91 0.95 0.93 6.07 6.06 3.32 3.33 3.28 3.28 1.65 1.6 1.48 1.46 1.46 1.46 1.46 1.44 1.44 1.44 1.45 1.44 1.45 1.45 1.46 1.44 1.45 1.45 1.45 1.45 1.44 1.44 1.44 1.44 1.44 1.44 1.45 1.45 1.47 1.46 1.48 1.48 1.49 1.48 1.49 1.49 1.49 1.49 1.5 1.5 1.51 1.51 1.53 1.56 3.22 3.23 3.24 3.23 3.24 3.24 5.04 2.59 2.53 2.53 2.53 2.51 2.49 2.48 2.47 2.45 2.42 2.42 3.8 3.54 3.46 3.41 3.36 3.31 3.26 3.28 3.3 3.24 3.27 3.29 3.3 3.33 3.35 3.37 3.4 3.41 3.43 3.45 3.48 3.5 3.53 -1.62 0.242 3.68619 -1.62 0.242 3.68619 1.13486e+09 pippo 1.13486e+09
ODOM -1.62 0.242 3.68619 0 0 0 0 pippo 0
NEFF 24.2636 0 pippo 0
ODOM -1.81 0.129 3.68393 0 0 0 1.13486e+09 pippo 1.13486e+09
ODOM -1.934 0.051 3.64571 0 0 0 1.13486e+09 pippo 1.13486e+09
ODOM -2.045 -0.049 3.55507 0 0 0 1.13486e+09 pippo 1.13486e+09
ODOM -2.173 -0.105 3.57378 0 0 0 1.13486e+09 pippo 1.13486e+09
ODOM -2.344 -0.151 3.67349 0 0 0 1.13486e+09 pippo 1.13486e+09
ODOM -2.475 -0.218 3.76458 0 0 0 1.13486e+09 pippo 1.13486e+09
ODOM -2.619 -0.307 3.76272 0 0 0 1.13486e+09 pippo 1.13486e+09
FLASER 361 1.36 1.35 1.35 1.36 1.36 1.37 1.37 1.38 1.38 1.37 1.36 1.38 1.38 1.38 1.38 1.38 1.39 3.02 3.02 3.04 3.05 3.09 3.1 81.91 81.91 81.91 2.08 81.91 81.91 3.22 3.24 3.26 3.27 3.33 3.33 3.37 3.38 3.4 3.41 3.44 3.45 3.48 3.49 3.47 3.49 3.54 3.56 3.25 3.27 3.29 3.31 3.72 3.7 3.75 3.77 3.79 3.8 3.55 3.54 2.02 2.02 1.88 1.9 1.77 1.77 1.65 1.66 1.66 1.64 1.66 1.66 1.67 1.67 1.2 1.3 1.12 1.13 1.13 1.13 1.14 1.15 1.13 1.14 1.15 1.18 1.18 1.17 1.15 1.16 1.34 1.27 1.77 1.46 4.78 4.8 1.14 1.15 4.94 4.95 4.97 4.98 5.04 5.06 5.1 5.12 5.17 5.19 5.23 5.24 5.29 5.31 4.33 4.24 4.06 4.07 4.05 4.06 4.06 4.06 4.13 4.12 81.91 81.91 81.91 81.91 4.27 4.27 3.46 3.43 3.31 3.29 3.23 3.23 3.18 3.18 3.11 3.12 3.08 3.09 3.12 3.14 3.19 3.2 3.24 3.27 3.32 3.35 3.4 3.42 81.91 81.91 3.13 3.14 81.91 81.91 81.91 81.91 81.91 6.85 6.87 6.89 6.47 6.45 6.35 6.36 6.31 6.31 6.31 6.33 6.37 6.4 5.94 5.78 5.68 5.68 5.44 5.42 5.42 5.48 5.52 5.55 5.67 5.64 5.65 3.94 3.91 3.9 3.79 3.77 3.7 3.74 3.76 3.73 3.71 3.74 3.71 3.71 6.77 6.76 6.75 6.77 6.82 6.93 7.52 7.51 7.4 7.38 7.28 7.27 3.86 7.14 7.05 7.03 6.95 6.93 6.85 6.83 6.75 6.74 6.68 6.72 6.7 6.68 6.66 6.66 2.72 2.7 2.62 2.61 2.54 2.54 2.49 2.49 2.46 2.46 2.41 2.42 2.41 2.42 2.42 2.44 2.46 2.56 2.78 2.75 2.68 2.71 2.68 2.71 2.7 5.76 5.84 5.83 5.9 5.92 6.11 6.18 6.27 6.33 6.44 6.45 6.52 6.55 9.31 9.11 9.01 9 5.43 5.41 5.39 5.39 5.38 5.38 5.36 5.36 5.34 5.34 5.32 5.33 5.31 5.31 5.3 5.3 5.29 5.29 4.78 2.87 2.82 2.75 2.72 2.73 2.73 2.74 2.74 2.75 2.75 2.76 2.76 2.78 2.77 2.78 2.79 2.79 2.62 2.29 2.22 2.17 2.12 2.12 2.13 2.14 2.14 2.15 2.16 2.16 2.17 2.18 2.18 2.19 2.2 2.21 2.22 2.21 1.92 1.89 1.86 1.84 1.81 1.79 1.77 1.75 1.73 1.7 1.69 1.67 1.65 1.64 1.63 1.6 1.53 1.33 1.32 1.31 1.3 1.28 1.27 1.24 1.24 1.21 1.2 1.19 1.19 1.21 1.22 81.91 81.91 0.67 0.68 0.67 0.66 0.65 -2.544 -0.244 3.85178 -2.544 -0.244 3.85178 1.13486e+09 pippo 1.13486e+09
ODOM -2.544 -0.244 3.85178 0 0 0 0 pippo 0
NEFF 22.0755 0 pippo 0
ODOM -2.656 -0.329 3.88417 0 0 0 1.13486e+09 pippo 1.13486e+09
ODOM -2.787 -0.449 3.85187 0 0 0 1.13486e+09 pippo 1.13486e+09
ODOM -2.908 -0.549 3.83092 0 0 0 1.13486e+09 pippo 1.13486e+09
ODOM -3.03 -0.638 3.81521 0 0 0 1.13486e+09 pippo 1.13486e+09
ODOM -3.167 -0.727 3.79781 0 0 0 1.13486e+09 pippo 1.13486e+09
ODOM -3.276 -0.82 3.72767 0 0 0 1.13486e+09 pippo 1.13486e+09
ODOM -3.393 -0.875 3.51643 0 0 0 1.13486e+09 pippo 1.13486e+09
FLASER 361 3.06 3.06 3.08 3.08 1.39 1.39 1.38 1.37 1.37 1.36 1.36 1.35 1.35 1.34 1.34 1.34 1.33 1.33 1.33 1.33 1.33 1.32 1.32 1.32 1.31 1.31 1.31 1.3 1.3 1.3 1.3 1.29 1.29 1.29 1.28 1.28 1.28 1.28 1.28 1.28 1.38 1.51 1.61 1.77 1.82 1.83 1.69 1.67 1.67 1.67 1.66 1.66 1.65 1.65 1.65 1.65 1.66 1.66 1.73 81.91 81.91 81.91 3.39 3.38 3.38 3.39 3.44 3.45 3.46 3.5 81.91 81.91 81.91 81.91 81.91 81.91 81.91 81.91 81.91 81.91 81.91 81.91 81.91 81.91 81.91 3.73 3.6 3.59 3.71 3.83 3.95 3.94 3.98 3.97 4 4 4.03 4.03 4.07 4.07 4.1 4.1 4.13 4.13 4.17 4.16 4.2 4.2 4.23 4.24 4.28 4.26 4.31 4.3 4.33 4.32 3.21 3.19 3.14 3.13 3.14 3.13 3.21 3.21 3.71 3.69 81.91 81.91 81.91 81.91 81.91 81.91 81.91 81.91 81.91 81.91 81.91 81.91 2.06 2.04 2.08 2.06 2.09 2.09 2.11 2.11 2.14 2.12 2.17 2.16 2.21 2.2 2.24 2.23 2.28 2.27 2.35 2.32 81.91 81.91 2.03 2.02 2.07 2.07 81.91 81.91 81.91 81.91 81.91 81.91 81.91 81.91 81.91 81.91 81.91 81.91 5.65 5.64 5.69 5.68 5.64 5.65 5.28 5.27 5.21 5.2 5.16 5.15 5.16 5.15 5.18 5.17 5.23 5.22 4.54 4.55 4.5 4.49 4.33 4.34 4.21 4.2 4.31 4.29 4.37 4.35 4.66 4.65 4.7 4.69 4.61 4.6 6.99 4.58 2.72 2.72 2.64 2.64 2.57 2.57 2.64 2.57 2.69 2.68 5.79 5.78 2.64 2.63 2.6 2.6 5.98 5.9 6.42 6.4 3.02 6.31 6.2 6.2 6.11 6.1 2.68 6.02 2.62 5.94 2.68 2.76 2.62 2.63 2.72 5.7 2.75 5.64 2.8 5.61 2.86 5.63 5.6 5.59 5.56 5.56 5.5 5.5 4.64 4.77 4.5 4.5 4.44 4.45 4.4 4.4 4.38 4.39 4.33 4.35 4.32 4.31 4.29 4.29 4.26 4.25 1.73 1.77 1.65 1.67 1.63 1.64 1.6 1.6 1.57 1.58 1.55 1.55 1.54 1.54 1.52 1.52 1.51 1.51 1.5 1.5 1.49 1.49 1.49 1.48 1.5 1.49 1.52 1.51 1.55 1.53 1.59 1.55 1.79 1.66 81.91 1.8 81.91 81.91 4.65 4.66 4.64 4.64 4.65 4.64 4.65 4.65 4.65 4.65 4.66 4.65 4.67 4.66 4.68 4.67 4.69 4.68 4.57 4.62 3.91 3.92 3.93 3.92 3.95 3.95 3.96 3.96 3.98 3.97 4 3.99 4.02 4.01 4.04 4.03 4.06 4.05 4.08 4.07 2.4 2.41 2.35 -3.455 -1.003 3.64143 -3.455 -1.003 3.64143 1.13486e+09 pippo 1.13486e+09
ODOM -3.455 -1.003 3.64143 0 0 0 0 pippo 0
NEFF 22.1326 0 pippo 0
ODOM -3.608 -1.102 3.52477 0 0 0 1.13486e+09 pippo 1.13486e+09
ODOM -3.791 -1.148 3.39094 0 0 0 1.13486e+09 pippo 1.13486e+09
ODOM -3.931 -1.194 3.28524 0 0 0 1.13486e+09 pippo 1.13486e+09
ODOM -4.057 -1.221 3.24544 0 0 0 1.13486e+09 pippo 1.13486e+09
ODOM -4.215 -1.231 3.17562 0 0 0 1.13486e+09 pippo 1.13486e+09
ODOM -4.317 -1.223 3.17453 0 0 0 1.13486e+09 pippo 1.13486e+09
ODOM -4.432 -1.235 3.16704 0 0 0 1.13486e+09 pippo 1.13486e+09
FLASER 361 1.21 1.14 1.15 1.11 1.11 1.05 1.06 1 1 0.96 0.97 0.92 0.91 0.9 0.91 0.91 0.92 0.92 0.93 0.93 0.94 0.94 0.94 0.95 0.95 0.96 0.96 0.97 0.97 0.99 0.99 1.01 1.01 1.04 1.04 1.04 1.04 1.06 1.06 1.07 1.07 1.08 1.1 1.11 1.11 1.1 1.11 1.21 1.24 2.77 2.78 2.77 2.77 1.14 1.12 1.11 1.11 1.08 1.08 1.03 1.03 1 1.01 1 1 1.01 1.01 1.01 1.02 1.02 1.02 1.03 1.02 1.02 1.03 1.04 1.05 1.04 2.36 2.33 2.34 2.36 2.39 2.65 2.64 2.61 2.65 2.65 2.67 2.67 2.7 2.69 2.7 2.69 2.69 2.36 2.38 2.44 2.44 2.42 2.44 2.41 2.44 2.42 2.44 2.42 2.45 2.44 2.45 2.42 2.44 2.42 2.42 2.42 2.42 2.41 2.44 2.44 2.46 2.46 2.47 2.46 2.47 2.46 2.48 2.47 2.48 2.47 2.49 2.49 2.49 2.48 2.49 2.49 2.51 2.52 2.53 2.53 2.54 2.54 2.56 2.55 2.57 2.56 2.58 2.58 2.6 2.59 2.61 2.61 2.63 2.62 2.64 2.64 2.65 2.66 2.63 2.6 2.57 2.86 2.91 2.91 2.93 2.92 2.94 2.94 2.97 2.95 2.98 2.97 2.99 2.97 2.99 2.99 3.01 3.01 3.04 3.03 3.05 3.05 3.07 3.07 3.08 3.09 3.11 3.11 3.13 3.13 3.16 3.15 3.18 3.17 3.21 3.2 3.22 3.22 2.2 2.03 2.04 2.03 2.04 2.03 2.04 2.02 2.16 2.14 2.11 2.11 81.91 2.75 2.58 2.67 81.91 81.91 81.91 81.91 81.91 81.91 81.91 81.91 81.91 81.91 81.91 81.91 81.91 81.91 81.91 81.91 81.91 81.91 81.91 81.91 81.91 81.91 81.91 81.91 81.91 81.91 81.91 81.91 81.91 81.91 81.91 81.91 81.91 81.91 1.03 1.03 1.06 1.05 1.06 1.04 1.07 1.07 1.09 1.09 1.1 1.11 1.12 1.12 1.15 1.15 1.17 1.17 1.2 1.19 1.23 1.24 81.91 81.91 81.91 81.91 81.91 81.91 81.91 81.91 81.91 81.91 81.91 81.91 81.91 81.91 1.04 1.04 1.05 1.05 4.26 4.25 4.23 4.23 4.24 4.24 4.26 4.27 4.29 4.33 4.36 4.32 4.15 4.23 3.69 3.64 3.64 3.63 3.64 3.59 3.54 3.56 3.38 3.37 3.38 3.39 3.53 3.52 3.77 3.88 3.93 3.91 3.88 3.88 3.81 3.82 6.42 6.09 6.02 6.28 5.27 5.11 5.14 5.13 5.08 5.04 5.17 5.2 5.17 5.19 5.26 5.34 5.74 5.72 5.69 5.67 2.35 2.13 2.06 2.05 2.02 2.02 2 2 1.97 1.97 1.96 1.96 1.98 2.01 2.1 2.11 5.23 5.21 2.15 -4.535 -1.028 2.88891 -4.535 -1.028 2.88891 1.13486e+09 pippo 1.13486e+09
ODOM -4.535 -1.028 2.88891 0 0 0 0 pippo 0
NEFF 12.8737 0 pippo 0
ODOM -4.7 -0.983 2.87031 0 0 0 1.13486e+09 pippo 1.13486e+09
ODOM -4.763 -0.968 2.87007 0 0 0 1.13486e+09 pippo 1.13486e+09
ODOM -4.951 -0.927 2.80387 0 0 0 1.13486e+09 pippo 1.13486e+09
ODOM -5.121 -0.873 2.71923 0 0 0 1.13486e+09 pippo 1.13486e+09
ODOM -5.242 -0.838 2.59379 0 0 0 1.13486e+09 pippo 1.13486e+09
ODOM -5.331 -0.734 2.34168 0 0 0 1.13486e+09 pippo 1.13486e+09
ODOM -5.394 -0.681 2.14938 0 0 0 1.13486e+09 pippo 1.13486e+09
FLASER 361 1.06 1.06 1.06 1.06 1.05 1.06 1.04 1.05 1.03 1.04 1.03 1.03 1.02 1.03 1.02 1.02 0.94 0.93 0.82 0.82 0.82 0.82 0.79 0.79 0.8 0.8 0.78 0.78 0.77 0.77 0.78 0.77 0.76 0.76 0.75 0.76 0.76 0.77 0.81 0.82 0.85 0.84 0.9 0.89 81.91 81.91 2.92 2.93 2.9 2.91 2.87 2.89 2.85 2.85 2.82 2.83 2.78 2.78 2.75 2.76 2.73 2.72 2.7 2.71 2.67 2.67 2.64 2.65 2.61 2.62 2.59 2.59 2.57 2.57 2.55 2.55 2.52 2.53 2.5 2.5 2.47 2.48 2.44 2.45 2.41 2.42 2.39 2.39 2.37 2.37 2.34 2.36 2.33 2.33 2.31 2.31 2.29 2.29 2.27 2.27 2.25 2.25 2.23 2.24 2.22 2.22 2.11 2.13 81.91 81.91 81.91 81.91 81.91 81.91 1.8 1.79 1.75 1.77 1.99 2.02 2 1.99 2.03 2.03 2.04 2.03 2.01 2.02 2.05 2.01 2.02 2.03 1.67 1.76 1.73 1.71 1.78 1.76 81.91 81.91 81.91 81.91 81.91 81.91 1.83 81.91 1.76 1.79 1.74 1.77 1.74 1.73 1.7 1.71 1.69 1.7 1.68 1.67 1.67 1.67 1.66 1.66 1.65 1.65 1.64 1.63 1.65 1.64 1.64 1.64 1.64 1.63 1.63 1.62 1.62 1.62 1.61 1.62 1.61 1.62 1.6 1.6 1.6 1.59 1.6 1.59 1.59 1.59 1.59 1.59 1.59 1.59 1.6 1.59 1.61 1.6 1.61 1.61 1.62 1.61 1.62 1.61 1.63 1.62 1.64 1.63 1.65 1.65 1.65 1.65 1.66 1.63 1.67 1.66 1.67 1.65 1.69 1.67 1.69 1.67 1.69 1.69 1.71 1.69 1.71 1.7 1.69 1.7 1.61 1.66 1.94 1.59 1.97 1.96 1.98 1.97 1.99 1.98 2 1.99 2.01 2 2.02 2.01 2.03 2.02 2.05 2.03 2.06 2.04 2.07 2.06 2.08 2.07 2.08 2.07 2.11 2.08 2.11 2.1 2.12 2.11 2.15 2.13 2.15 2.15 2.18 2.16 2.19 2.18 2.22 2.2 2.24 2.22 2.26 2.24 2.28 2.26 2.3 2.29 2.33 2.31 2.35 2.33 2.37 2.36 2.4 2.38 2.42 2.4 2.46 2.44 2.49 2.47 2.51 2.5 2.53 2.52 81.91 2.47 1.24 81.91 81.91 1.23 81.91 81.91 81.91 81.91 81.91 81.91 1.65 1.74 81.91 1.66 81.91 81.91 81.91 81.91 81.91 81.91 81.91 81.91 2.54 81.91 81.91 2.53 81.91 81.91 81.91 81.91 1.45 81.91 1.41 1.42 1.39 1.4 1.38 1.39 1.39 1.38 1.41 1.39 1.42 1.41 1.55 1.42 1.61 1.56 81.91 81.91 81.91 81.91 81.91 81.91 81.91 81.91 81.91 81.91 81.91 81.91 81.91 -5.413 -0.673 2.21657 -5.413 -0.673 2.21657 1.13486e+09 pippo 1.13486e+09
ODOM -5.413 -0.673 2.21657 0 0 0 0 pippo 0
NEFF 28.2574 0 pippo 0
ODOM -5.432 -0.61 1.85832 0 0 0 1.13486e+09 pippo 1.13486e+09
ODOM -5.43 -0.503 1.56676 0 0 0 1.13486e+09 pippo 1.13486e+09
FLASER 361 3.58 3.37 3.41 3.4 9.88 9.85 9.9 9.88 9.93 9.91 9.97 9.94 10.02 9.98 10.06 10.03 10.11 10.07 1.78 8.69 1.79 1.76 8.23 8.32 1.8 1.87 1.74 1.79 81.91 1.74 81.91 81.91 1.82 1.94 1.83 1.83 11.87 81.91 1.16 11.86 1.15 1.16 1.13 1.15 1.11 1.13 1.1 1.11 1.08 1.08 1.07 1.07 1.06 1.07 1.05 1.06 1.04 1.05 1.03 1.03 1.02 1.02 1.01 1.01 1 1.01 0.86 0.97 0.76 0.77 0.75 0.75 0.75 0.76 0.74 0.73 0.7 0.72 0.69 0.7 0.7 0.7 0.69 0.68 0.7 0.68 0.72 0.71 0.73 0.71 0.75 0.73 0.77 0.75 0.8 0.78 0.81 0.8 81.91 0.82 0.97 81.91 1.02 0.94 81.91 81.91 1.94 81.91 2.01 1.92 81.91 1.99 81.91 81.91 2.85 2.89 2.83 2.85 2.79 2.81 2.75 2.78 2.72 2.74 2.69 2.71 2.65 2.68 2.63 2.65 2.6 2.62 2.57 2.59 2.54 2.55 2.52 2.53 2.49 2.5 2.46 2.48 2.41 2.44 2.39 2.41 2.36 2.38 2.34 2.35 2.32 2.33 2.29 2.31 2.27 2.28 2.24 2.26 2.22 2.23 2.18 2.21 2.17 2.17 2.16 2.16 2.14 2.15 2.12 2.13 2.09 2.11 2.07 2.08 2.05 2.06 1.98 2.05 81.91 1.94 81.91 81.91 81.91 81.91 1.66 81.91 1.61 1.62 1.61 1.61 1.85 1.83 1.8 1.85 1.86 1.84 1.86 1.85 1.84 1.85 1.84 1.83 1.84 1.84 1.5 1.83 1.52 1.49 1.58 1.51 1.56 1.57 81.91 1.65 81.91 81.91 81.91 81.91 81.91 81.91 1.64 81.91 81.91 81.91 1.6 81.91 1.61 1.58 1.52 81.91 1.49 1.51 1.48 1.48 1.48 1.47 1.47 1.47 1.47 1.46 1.47 1.47 1.46 1.45 1.46 1.45 1.45 1.46 1.44 1.44 1.43 1.43 1.42 1.42 1.42 1.41 1.42 1.41 1.41 1.41 1.41 1.41 1.41 1.41 1.41 1.41 1.41 1.41 1.42 1.41 1.42 1.42 1.43 1.42 1.44 1.42 1.44 1.43 1.45 1.44 1.46 1.45 1.46 1.45 1.47 1.46 1.46 1.46 1.47 1.46 1.47 1.48 1.49 1.47 1.5 1.48 1.52 1.49 1.53 1.52 1.58 1.53 1.57 1.59 81.91 1.58 81.91 81.91 1.6 81.91 1.54 1.59 1.49 1.54 1.43 1.48 1.82 1.44 1.83 1.82 1.84 1.83 1.85 1.84 1.87 1.85 1.88 1.86 1.89 1.87 1.91 1.89 1.91 1.9 1.93 1.91 1.93 1.93 1.95 1.93 1.97 1.95 1.98 1.97 2 1.98 2.03 1.99 2.04 2.02 2.03 2.04 2.08 2.03 2.1 2.09 2.13 2.11 2.15 2.13 2.18 -5.503 -0.513 1.56051 -5.503 -0.513 1.56051 1.13486e+09 pippo 1.13486e+09
ODOM -5.503 -0.513 1.56051 0 0 0 0 pippo 0
NEFF 28.1827 0 pippo 0
ODOM -5.46 -0.5 1.21975 0 0 0 1.13486e+09 pippo 1.13486e+09
ODOM -5.393 -0.466 0.494682 0 0 0 1.13486e+09 pippo 1.13486e+09
FLASER 361 5.63 5.73 5.57 5.62 5.39 5.57 4.13 4.19 4.09 4.13 4.16 4.08 4.28 4.17 4.42 4.27 4.57 4.42 5.01 4.66 4.95 5.01 6.03 4.96 4.1 6.04 4.01 4.03 3.98 3.99 4.12 3.98 4.23 4.14 4.35 4.25 5.69 4.35 4.02 5.69 3.99 4.06 3.97 3.98 3.97 3.96 3.95 3.96 3.94 3.95 3.93 3.93 3.93 3.93 3.91 3.93 3.72 3.92 3.67 3.78 3.65 3.67 3.63 3.65 4.16 3.63 5.54 4.18 5.66 5.55 5.4 5.67 5.37 5.39 3.51 5.39 3.37 3.49 3.43 3.38 3.62 3.43 3.36 3.61 3.38 3.4 9.81 3.37 9.83 9.81 9.86 9.83 9.89 9.86 1.72 9.9 1.73 1.72 1.74 1.73 81.91 1.74 1.76 81.91 1.73 1.76 1.76 81.91 1.87 1.72 1.79 1.84 1.74 1.8 1.13 1.73 1.07 1.11 1.06 1.07 1.04 1.06 1.03 1.04 1.01 1.02 0.99 1 0.98 0.99 0.97 0.97 0.96 0.97 0.96 0.96 0.94 0.95 0.81 0.94 0.7 0.76 0.67 0.69 0.67 0.67 0.65 0.66 0.63 0.64 0.62 0.64 0.62 0.62 0.61 0.61 0.6 0.6 0.63 0.58 0.62 0.62 0.63 0.62 0.65 0.63 0.65 0.65 0.67 0.66 0.69 0.68 0.71 0.68 0.8 0.7 0.79 0.8 81.91 0.77 0.79 81.91 3.12 0.78 81.91 3.11 81.91 81.91 81.91 81.91 81.91 81.91 81.91 81.91 81.91 81.91 81.91 81.91 2.76 2.84 2.73 2.77 2.69 2.73 2.65 2.69 2.62 2.65 2.59 2.62 2.56 2.58 2.54 2.56 2.51 2.54 2.48 2.5 2.44 2.47 2.41 2.44 2.38 2.4 2.35 2.37 2.32 2.35 2.3 2.32 2.27 2.29 2.25 2.27 2.22 2.24 2.19 2.22 2.17 2.19 2.15 2.17 2.13 2.15 2.1 2.13 2.08 2.1 2.04 2.08 2.05 2.04 2.03 2.04 2 2.02 1.99 2 1.97 1.98 1.95 1.96 1.94 1.94 1.81 1.94 1.77 1.81 81.91 1.76 81.91 81.91 81.91 81.91 1.52 81.91 1.49 1.52 1.46 1.48 1.58 1.46 1.58 1.57 1.63 1.58 1.65 1.62 1.65 1.64 1.64 1.64 1.72 1.61 1.71 1.72 1.4 1.71 81.91 81.91 1.42 81.91 1.45 1.41 81.91 1.45 81.91 81.91 81.91 81.91 81.91 81.91 81.91 81.91 81.91 81.91 1.44 81.91 1.41 1.47 1.41 1.41 1.38 1.4 1.38 1.38 1.38 1.38 1.37 1.38 1.38 1.38 1.37 1.37 1.36 1.36 1.36 1.36 1.36 1.36 1.35 1.36 1.35 1.35 1.34 1.34 1.34 1.34 1.34 1.34 1.34 1.34 1.35 1.34 1.35 1.34 1.36 1.34 1.36 1.35 1.36 -5.463 -0.332 0.794682 -5.463 -0.332 0.794682 1.13486e+09 pippo 1.13486e+09
ODOM -5.463 -0.332 0.794682 0 0 0 0 pippo 0
NEFF 21.7387 0 pippo 0
ODOM -5.44 -0.338 0.341128 0 0 0 1.13486e+09 pippo 1.13486e+09
ODOM -5.418 -0.33 0.049969 0 0 0 1.13486e+09 pippo 1.13486e+09
FLASER 361 5.72 5.75 5.78 5.72 5.76 5.78 2.86 5.76 2.75 2.86 1.3 2.74 1.28 1.3 2.58 1.29 2.56 2.58 2.56 2.57 2.56 2.56 2.69 2.56 2.76 2.69 2.75 2.75 4.91 2.76 4.92 4.91 4.93 4.91 4.93 4.93 4.94 4.93 4.95 4.95 4.99 4.93 6.53 5.01 8.63 6.53 8.53 8.63 8.44 8.52 8.51 8.43 10.44 8.5 10.32 10.44 8.17 10.37 5.81 8.18 5.83 5.81 5.87 5.83 5.89 5.87 5.94 5.9 5.98 5.93 6.02 5.98 6.06 6.02 6.12 6.06 3.29 6.12 2.92 3.17 2.89 2.92 3 2.89 3 3 3.01 3.01 2.96 3.02 2.91 2.96 2.95 2.91 2.95 2.95 5.89 2.94 5.81 5.89 5.7 5.81 5.59 5.69 5.49 5.58 4.15 5.48 4.1 4.23 4.16 4.1 4.27 4.15 4.41 4.25 4.56 4.41 5.06 4.59 4.97 5.06 6.05 4.97 4.06 6.05 3.98 4.05 3.97 3.98 4.03 3.97 4.18 4.04 4.31 4.18 4.42 4.31 5.66 4.44 3.96 5.65 3.94 3.96 3.93 3.94 3.92 3.94 3.92 3.92 3.91 3.91 3.9 3.9 3.88 3.89 3.91 3.88 3.68 3.84 3.63 3.67 3.61 3.63 4.04 3.61 5.47 81.91 5.55 5.46 5.65 5.55 5.32 5.64 3.51 5.32 3.36 3.52 3.41 3.35 5.84 3.41 3.3 5.85 3.4 3.29 3.34 3.38 9.76 3.33 9.78 9.76 9.82 9.78 9.85 9.81 81.91 9.85 1.64 81.91 81.91 1.66 1.68 81.91 81.91 1.68 1.63 81.91 81.91 1.67 1.71 81.91 1.09 1.71 1.02 1.1 1 1.02 0.98 1 0.97 0.98 0.96 0.97 0.95 0.96 0.93 0.94 0.92 0.93 0.91 0.92 0.9 0.91 0.89 0.9 0.82 0.88 0.63 0.82 0.62 0.64 0.61 0.61 0.59 0.61 0.59 0.59 0.57 0.58 0.57 0.57 0.55 0.56 0.55 0.55 0.54 0.55 0.6 0.53 0.55 0.64 0.56 0.55 0.57 0.55 0.58 0.57 0.6 0.58 0.61 0.59 0.62 0.6 0.64 0.61 0.73 0.63 0.74 0.71 81.91 0.73 0.76 81.91 3.05 0.75 2.99 3.05 2.96 2.99 2.93 2.95 2.92 2.93 81.91 2.91 1.81 81.91 81.91 1.8 2.71 81.91 2.69 2.71 2.65 2.69 2.61 2.65 2.58 2.61 2.54 2.58 2.52 2.54 2.49 2.52 2.46 2.49 2.42 2.46 2.39 2.41 2.36 2.4 2.35 2.37 2.31 2.34 2.29 2.32 2.25 2.28 2.23 2.25 2.2 2.23 2.18 2.2 2.16 2.18 2.14 2.16 2.12 2.14 2.09 2.12 2.07 2.09 2.05 2.07 2.03 2.05 2.01 2.03 1.99 2.01 1.97 1.99 1.96 1.97 1.95 -5.413 -0.305 -0.100031 -5.413 -0.305 -0.100031 1.13486e+09 pippo 1.13486e+09
ODOM -5.413 -0.305 -0.100031 0 0 0 0 pippo 0
NEFF 19.058 0 pippo 0
ODOM -5.365 -0.285 -0.270105 0 0 0 1.13486e+09 pippo 1.13486e+09
ODOM -5.315 -0.268 -0.455592 0 0 0 1.13486e+09 pippo 1.13486e+09
ODOM -5.249 -0.286 -0.578803 0 0 0 1.13486e+09 pippo 1.13486e+09
ODOM -5.214 -0.31 -0.680652 0 0 0 1.13486e+09 pippo 1.13486e+09
ODOM -5.108 -0.413 -0.676016 0 0 0 1.13486e+09 pippo 1.13486e+09
ODOM -5.044 -0.463 -0.678197 0 0 0 1.13486e+09 pippo 1.13486e+09
ODOM -4.961 -0.529 -0.661259 0 0 0 1.13486e+09 pippo 1.13486e+09
ODOM -4.758 -0.675 -0.703376 0 0 0 1.13486e+09 pippo 1.13486e+09
ODOM -4.593 -0.818 -0.737651 0 0 0 1.13486e+09 pippo 1.13486e+09
FLASER 361 81.91 81.91 81.91 81.91 81.91 81.91 81.91 81.91 81.91 81.91 81.91 0.75 0.81 81.91 0.8 81.91 81.91 81.91 81.91 81.91 81.91 3.97 3.97 3.96 3.96 3.96 3.97 3.99 3.99 4.02 4.05 4.1 4.11 4.12 3.95 4.23 3.83 3.63 3.46 3.41 3.42 3.42 3.43 3.36 3.34 3.34 3.35 3.19 3.19 3.19 3.2 3.3 3.35 81.91 81.91 0.78 0.79 81.91 81.91 3.67 6.05 5.06 4.91 4.92 4.9 4.88 4.9 4.93 5 4.95 4.99 4.98 5.14 5.61 5.59 5.56 5.54 5.51 5.49 5.45 5.44 5.4 5.4 5.37 5.37 5.34 5.32 5.29 5.28 2.29 2.28 2.16 2.16 2.01 2 1.98 1.98 1.96 1.96 1.94 1.95 1.93 1.93 1.93 1.94 1.94 1.98 2.05 2.07 2.26 2.19 2.1 2.11 2.09 2.1 4.33 4.3 4.27 4.29 4.26 4.27 4.27 4.27 4.25 4.26 4.24 4.25 2.38 4.23 4.23 2.4 4.24 4.25 4.24 4.23 3.83 3.69 3.68 4.1 4.32 5.08 5.21 5.82 3.56 3.55 3.54 7.92 9.56 3.57 3.52 81.91 7.7 7.73 7.77 9.67 9.68 9.69 9.7 7.71 5.12 5.08 5.07 5.1 5.1 5.12 5.12 5.15 5.15 5.18 5.18 5.22 5.22 5.25 5.25 5.28 5.29 5.32 5.32 5.35 5.37 2.23 2.18 2.16 2.14 2.13 2.11 2.11 2.13 2.12 2.12 2.13 2.12 2.16 2.15 2.15 2.15 2.15 2.13 2.13 2.12 2.13 2.13 2.15 2.16 2.18 2.19 2.23 5.01 4.96 4.91 4.87 4.82 4.83 4.8 4.66 4.6 3.48 3.42 3.41 3.4 3.37 3.34 3.41 3.44 3.52 3.53 3.59 3.67 3.76 3.87 4.29 4.29 4.28 4.28 4.32 5.34 5.32 5.33 3.77 3.82 3.35 3.31 3.3 3.28 3.3 3.26 3.26 3.28 3.51 3.55 81.91 3.76 3.75 4.98 5.06 5.05 4.35 3.42 3.34 3.32 3.33 3.32 3.32 3.31 3.31 3.3 3.31 3.31 3.31 3.3 3.31 3.3 3.31 3.31 3.31 3.3 3.32 3.38 3.25 3.17 3.13 3.13 3.12 3.12 3.12 3.13 3.12 3.24 5.18 4.9 4.84 4.81 4.9 5.33 5.26 5.28 5.51 5.33 5.37 5.36 5.3 9.35 3.01 2.97 2.88 2.88 3 2.99 3.02 3.01 2.95 2.89 3.03 3.04 2.93 2.94 9.67 9.69 9.72 8.25 7.83 7.87 7.93 7.92 8.15 7.88 7.97 10.15 10.2 10.25 10.3 10.29 10.33 12.67 12.42 12.24 11.7 11.5 11.36 11.19 10.85 10.88 10.68 10.76 10.63 10.51 9.41 9.32 9.16 9.07 8.92 8.84 8.7 8.63 8.53 8.47 1.44 1.46 8.13 8.07 4.53 -5.016 -0.962 -0.998588 -5.016 -0.962 -0.998588 1.13486e+09 pippo 1.13486e+09
ODOM -5.016 -0.962 -0.998588 0 0 0 0 pippo 0
NEFF 1 0 pippo 0
ODOM -4.979 -1.022 -1.096 0 0 0 1.13486e+09 pippo 1.13486e+09
ODOM -4.88 -1.198 -1.4056 0 0 0 1.13486e+09 pippo 1.13486e+09
ODOM -4.89 -1.33 -1.64915 0 0 0 1.13486e+09 pippo 1.13486e+09
ODOM -4.918 -1.419 -1.82056 0 0 0 1.13486e+09 pippo 1.13486e+09
FLASER 361 0.88 0.88 0.88 0.88 0.9 0.88 0.88 0.89 0.91 0.91 0.92 0.93 1.02 81.91 1.01 81.91 81.91 81.91 81.91 81.91 81.91 81.91 81.91 81.91 81.91 0.69 0.62 0.63 0.68 81.91 81.91 81.91 81.91 81.91 81.91 81.91 81.91 81.91 81.91 81.91 81.91 81.91 81.91 81.91 81.91 81.91 81.91 81.91 81.91 81.91 81.91 81.91 81.91 81.91 81.91 81.91 81.91 81.91 81.91 81.91 81.91 81.91 81.91 81.91 81.91 81.91 81.91 81.91 81.91 81.91 81.91 81.91 4.2 4.2 4.25 4.23 4.29 4.28 3.92 3.98 3.82 3.84 3.76 3.76 3.74 3.71 3.71 3.71 3.71 3.71 3.75 3.71 3.77 3.75 3.84 3.82 3.62 3.66 3.11 3.12 3.11 3.09 3.09 3.09 3 2.99 2.83 2.82 2.83 2.82 2.92 2.86 2.97 2.95 3.27 3.17 3.26 3.26 3.29 3.29 3.26 3.26 3.22 3.21 5.9 5.9 5.34 5.83 5.69 5.15 4.46 4.55 4.45 4.44 4.45 4.44 4.45 4.43 4.46 4.45 4.45 4.45 4.56 4.49 5.14 5.13 1.49 1.5 1.45 1.45 1.42 1.42 1.4 1.4 1.39 1.39 1.38 1.37 1.36 1.36 1.36 1.35 1.38 1.36 1.47 1.46 1.5 1.44 4.55 4.55 1.5 1.53 1.49 1.49 1.47 1.48 1.45 1.46 4.59 4.58 4.56 4.56 4.54 4.53 4.51 4.51 4.48 4.48 3.8 4.44 3.63 3.63 3.62 3.61 3.61 3.61 1.73 3.59 3.59 1.71 1.7 3.56 3.57 3.56 3.55 3.53 3.55 3.54 3.54 3.54 3.52 3.52 3.49 3.52 3.56 3.53 3.54 3.52 4.12 3.58 4.21 4 3.69 3.73 5.24 5.12 7.23 7.25 8.86 8.84 8.91 8.88 7.28 81.91 8.98 8.94 9 8.97 8.58 8.84 6.98 7.08 4.37 4.41 4.37 4.34 4.4 4.38 4.43 4.4 4.45 4.43 4.48 4.46 4.51 4.49 4.54 4.51 4.57 4.53 4.59 4.56 4.63 4.59 4.65 4.63 4.54 4.6 4.4 4.45 4.26 4.32 1.63 81.91 1.52 1.56 1.47 1.49 1.44 1.46 1.44 1.44 1.43 1.42 1.43 1.42 1.42 1.41 1.42 1.41 1.42 1.41 1.42 1.42 1.43 1.42 1.44 1.43 1.46 1.44 1.48 1.46 1.49 1.47 1.51 1.49 1.54 1.51 1.57 1.53 4.08 1.58 2.92 4.1 2.82 2.84 2.81 2.81 2.78 2.79 2.87 2.78 3 2.93 3.15 2.98 3.25 3.23 3.71 3.7 3.73 3.71 5.51 5.39 3.68 3.7 3.71 3.66 3.77 3.69 4.06 3.14 2.83 2.87 2.81 2.82 2.81 2.81 2.8 2.81 81.91 2.79 3.28 81.91 5.3 5.3 5.29 5.28 5.3 5.29 3.85 -4.738 -1.626 -1.72056 -4.738 -1.626 -1.72056 1.13486e+09 pippo 1.13486e+09
ODOM -4.738 -1.626 -1.72056 0 0 0 0 pippo 0
NEFF 29.9662 0 pippo 0
ODOM -4.74 -1.808 -1.86195 0 0 0 1.13486e+09 pippo 1.13486e+09
ODOM -4.754 -1.986 -2.09556 0 0 0 1.13486e+09 pippo 1.13486e+09
ODOM -4.859 -2.146 -2.25885 0 0 0 1.13486e+09 pippo 1.13486e+09
ODOM -4.931 -2.253 -2.38334 0 0 0 1.13486e+09 pippo 1.13486e+09
FLASER 361 0.88 0.87 0.88 0.87 0.86 0.86 0.86 0.86 0.86 0.86 0.87 0.88 0.88 0.88 0.88 0.89 0.89 0.9 0.89 0.91 81.91 81.91 81.91 81.91 81.91 81.91 81.91 3.11 3.1 2.01 2.01 2.04 81.91 3.15 3.1 3.12 2.39 3.11 3.12 3.11 3.12 1.65 1.63 1.62 1.62 1.62 1.61 1.61 1.61 1.6 1.6 1.6 1.59 1.59 1.59 1.59 1.59 1.59 1.58 1.58 1.58 1.58 1.59 1.58 1.59 1.58 1.59 1.58 1.59 1.57 1.58 1.58 1.59 1.59 1.59 1.59 1.61 1.59 1.61 1.6 1.61 1.6 1.61 1.6 1.62 1.62 1.62 1.62 1.65 1.63 1.65 1.65 1.66 1.65 1.69 1.68 1.7 1.7 1.71 1.7 1.72 1.71 1.73 1.72 1.75 1.74 1.78 1.78 81.91 81.91 81.91 81.91 81.91 81.91 81.91 81.91 81.91 81.91 81.91 81.91 81.91 81.91 81.91 81.91 81.91 81.91 81.91 81.91 81.91 81.91 81.91 81.91 81.91 81.91 81.91 81.91 81.91 81.91 3.52 3.5 3.52 3.51 3.55 3.54 3.57 3.56 3.6 3.59 3.62 3.62 3.65 3.64 3.68 3.67 3.58 3.56 3.27 3.26 3.19 3.18 3.17 3.15 3.14 3.12 3.12 3.11 3.12 3.1 3.12 3.12 3.14 3.14 3.17 3.16 2.84 2.84 2.48 2.47 2.47 2.46 2.46 2.45 2.35 2.34 2.2 2.2 2.16 2.15 2.17 2.16 2.24 2.23 2.3 2.29 2.31 2.29 2.63 2.62 2.7 2.67 2.73 2.73 2.67 2.67 2.64 2.63 2.59 2.58 4.95 4.95 5.25 5.23 5.19 5.18 4.43 4.41 5 4.99 4.12 4.12 3.97 4.81 3.86 3.85 4.28 4.18 4.15 4.19 4.16 4.19 4.22 4.23 4.47 4.46 4.43 4.42 4.37 4.37 4.31 4.32 1.1 1.13 0.85 0.96 0.8 0.8 0.79 0.78 0.77 0.77 0.76 0.76 0.76 0.74 0.75 0.75 0.74 0.74 0.74 0.73 0.73 0.73 0.73 0.73 0.72 0.72 0.71 0.72 0.71 0.71 0.71 0.71 0.7 0.68 81.91 81.91 81.91 81.91 81.91 81.91 3.9 81.91 1.08 1.17 0.92 0.94 0.93 0.92 0.91 0.91 0.92 0.91 81.91 81.91 0.89 0.95 3.04 0.9 3.01 3.01 3 3 3 2.99 2.99 2.98 3.01 3 1.07 3.01 1.05 1.05 1.07 1.06 1.06 1.06 1.07 1.06 1.12 1.08 1.09 1.12 1.07 1.05 1.06 1.05 1.07 1.12 3.18 1.06 8.52 8.52 8.5 8.52 7.78 7.72 7.88 7.88 6.6 6.63 6.32 6.37 6.38 6.36 6.41 6.42 4.03 4.03 3.98 3.98 4.03 4.02 4.05 4.04 4.09 4.08 4.12 4.11 4.16 4.15 4.2 -5.106 -2.225 -2.48959 -5.106 -2.225 -2.48959 1.13486e+09 pippo 1.13486e+09
ODOM -5.106 -2.225 -2.48959 0 0 0 0 pippo 0
NEFF 29.7768 0 pippo 0
ODOM -5.286 -2.299 -2.60875 0 0 0 1.13486e+09 pippo 1.13486e+09
ODOM -5.45 -2.4 -2.52321 0 0 0 1.13486e+09 pippo 1.13486e+09
ODOM -5.574 -2.484 -2.34542 0 0 0 1.13486e+09 pippo 1.13486e+09
ODOM -5.674 -2.604 -2.14741 0 0 0 1.13486e+09 pippo 1.13486e+09
FLASER 361 81.91 81.91 81.91 81.91 81.91 81.91 81.91 1.22 1.24 1.2 1.21 1.18 1.18 1.18 1.19 1.17 1.19 1.17 1.19 1.21 1.18 1.21 1.23 1.19 1.21 1.2 1.21 1.2 1.19 1.19 1.2 1.19 1.2 1.18 1.18 1.18 1.19 1.19 1.18 1.18 1.19 1.17 1.18 1.17 1.18 1.17 1.18 1.18 1.18 1.18 1.19 1.18 1.18 1.18 1.18 1.19 1.2 1.19 1.19 1.2 1.2 1.21 1.21 1.2 1.2 1.21 1.2 1.24 1.23 1.27 1.26 81.91 81.91 81.91 81.91 81.91 81.91 81.91 81.91 81.91 81.91 81.91 81.91 81.91 81.91 81.91 81.91 81.91 81.91 2.75 81.91 2.76 2.76 2.78 2.77 2.79 2.78 2.79 2.8 2.81 2.81 2.82 2.82 2.83 2.83 2.85 2.85 2.87 2.87 2.89 2.9 2.91 2.91 2.94 2.93 2.95 2.95 2.98 2.98 2.84 3 2.56 2.6 2.5 2.52 2.45 2.48 2.41 2.45 2.4 2.41 2.39 2.4 2.38 2.39 2.38 2.39 2.39 2.4 2.41 2.41 2.44 2.45 2.47 2.47 2.01 2.47 1.74 1.77 1.73 1.74 1.73 1.74 1.73 1.74 1.64 1.7 1.62 1.63 1.52 1.58 1.46 1.48 1.44 1.47 1.45 1.46 1.47 1.47 1.59 1.58 1.58 1.61 1.59 1.61 1.93 1.93 1.94 1.96 1.97 1.95 1.96 1.96 1.93 1.95 1.91 1.93 1.88 1.89 1.86 1.87 3.74 3.84 4.3 4.3 4.24 4.27 3.1 3.13 3.12 3.13 3.13 3.13 3.14 3.13 3.13 3.14 3.15 3.15 3.15 3.15 3.18 3.18 3.3 3.26 3.81 3.8 3.78 3.8 3.75 3.76 3.69 3.71 3.68 3.69 3.66 3.66 3.63 3.65 3.6 3.62 3.58 3.6 3.56 3.57 3.54 3.55 3.52 3.53 3.5 3.51 3.48 3.5 3.47 3.48 3.45 3.46 3.44 3.45 3.42 3.42 3.51 3.52 3.5 3.51 3.48 3.5 3.54 3.55 3.53 3.54 3.53 3.54 3.53 3.53 3.51 3.52 3.51 3.52 3.5 3.5 3.5 3.5 3.51 3.5 3.47 3.46 3.47 3.47 3.46 3.48 3.38 3.39 2.82 3.03 2.74 2.75 2.73 2.75 0.74 0.67 0.66 0.67 0.66 0.67 0.66 0.69 0.67 0.65 0.65 2.85 2.82 2.82 2.83 2.83 2.86 81.91 0.68 0.59 0.59 0.6 0.6 0.6 0.67 81.91 81.91 2.96 2.99 2.96 81.91 81.91 1.02 1 6.32 6.31 6.39 6.38 6.47 0.51 0.49 0.49 0.48 0.48 0.49 0.48 0.47 0.48 0.48 0.47 0.48 0.48 0.48 0.48 0.48 0.48 0.49 0.49 0.49 0.49 0.5 0.5 0.5 0.5 0.5 0.51 0.51 0.51 0.5 0.51 0.52 0.52 -5.725 -2.617 -2.22241 -5.725 -2.617 -2.22241 1.13486e+09 pippo 1.13486e+09
ODOM -5.725 -2.617 -2.22241 0 0 0 0 pippo 0
NEFF 28.4666 0 pippo 0
ODOM -5.813 -2.716 -2.10424 0 0 0 1.13486e+09 pippo 1.13486e+09
ODOM -5.843 -2.823 -1.81501 0 0 0 1.13486e+09 pippo 1.13486e+09
ODOM -5.873 -2.963 -1.65487 0 0 0 1.13486e+09 pippo 1.13486e+09
ODOM -5.881 -3.115 -1.46281 0 0 0 1.13486e+09 pippo 1.13486e+09
FLASER 361 2.1 2.01 2.02 1.98 1.99 1.95 1.96 1.94 1.94 1.92 1.93 1.91 1.92 1.32 1.9 1.24 1.26 1.24 1.25 1.24 1.24 1.21 1.23 0.93 1.12 0.9 0.92 0.9 0.91 0.89 0.9 0.89 0.89 0.9 0.89 0.92 0.91 1.02 0.94 1.02 1.03 1.03 1.03 1.01 1.02 1.01 1.01 1.01 1.01 1.11 1.03 1.28 1.23 1.3 1.31 1.3 1.3 1.32 1.32 1.34 1.34 3.44 1.35 1.5 3.46 1.41 1.44 1.36 1.38 1.34 1.34 1.31 1.32 1.29 1.31 1.27 1.28 3.76 1.27 3.82 3.81 3.65 3.59 3.91 3.91 3.87 3.89 3.8 3.82 3.06 3.06 3.67 3.69 3.61 3.64 2.65 2.65 2.81 2.74 2.64 2.66 2.54 2.55 2.59 2.58 2.71 2.67 2.64 2.66 2.64 2.64 2.67 2.66 2.7 2.69 2.89 2.79 3.15 3.15 3.11 3.13 3.09 3.1 3.07 3.07 3.04 3.05 3.01 3.02 2.99 3 2.97 2.97 2.95 2.96 2.93 2.94 2.91 2.92 2.9 2.91 2.88 2.89 2.86 2.88 2.85 2.86 2.84 2.85 2.83 2.84 2.83 2.84 2.82 2.82 2.81 2.82 2.81 2.82 2.76 2.78 2.85 2.85 2.87 2.89 2.88 2.89 2.86 2.86 2.9 2.92 2.9 2.91 2.89 2.9 2.9 2.91 2.91 2.92 2.9 2.91 2.92 2.93 2.91 2.91 2.91 2.92 2.92 2.93 2.92 2.93 2.89 2.9 2.9 2.91 2.91 2.92 2.82 2.84 2.81 2.81 2.7 2.72 2.51 2.52 2.34 2.35 2.2 2.21 2.21 2.23 2.23 2.24 2.24 2.25 2.26 2.27 2.27 2.27 2.28 2.28 2.29 2.3 2.31 2.31 2.33 2.33 2.35 2.36 2.38 2.4 2.41 2.42 2.45 2.45 2.46 2.47 2.49 2.5 2.52 2.53 2.55 2.56 2.58 2.59 2.6 2.61 2.83 2.84 2.84 2.85 6.22 6.24 6.1 6.11 3.8 3.81 3.71 3.71 3.76 3.77 3.82 3.84 3.9 3.9 3.96 3.97 4.04 4.05 4.12 4.12 4.2 4.21 4.29 4.3 4.38 4.39 4.36 4.35 81.91 81.91 4.22 4.23 81.91 4.17 4.1 4.12 4.05 4.08 4.01 4.01 3.98 3.99 3.93 3.94 4.06 4.12 4.21 4.22 4.36 4.36 4.51 4.52 81.91 0.83 0.8 81.91 4.7 4.69 4.66 4.67 4.63 4.64 4.61 4.61 4.66 4.68 4.63 4.64 4.53 4.53 4.57 4.59 4.73 4.73 4.87 4.87 1.19 1.18 1.16 4.57 4.57 4.58 1.23 4.6 4.6 4.6 4.56 4.56 81.91 81.91 3.56 0.46 3.57 0.41 0.43 0.45 0.41 0.49 81.91 0.47 0.47 0.47 0.47 0.5 0.48 81.91 81.91 81.91 81.91 81.91 -5.929 -3.23 -1.37531 -5.929 -3.23 -1.37531 1.13486e+09 pippo 1.13486e+09
ODOM -5.929 -3.23 -1.37531 0 0 0 0 pippo 0
NEFF 27.502 0 pippo 0
ODOM -5.891 -3.408 -1.31137 0 0 0 1.13486e+09 pippo 1.13486e+09
ODOM -5.835 -3.561 -1.39168 0 0 0 1.13486e+09 pippo 1.13486e+09
ODOM -5.796 -3.705 -1.64613 0 0 0 1.13486e+09 pippo 1.13486e+09
ODOM -5.839 -3.667 -2.16439 0 0 0 1.13486e+09 pippo 1.13486e+09
FLASER 361 0.94 0.94 0.95 0.95 0.98 0.97 1.03 1.03 1.03 1.02 1 1 0.98 0.98 0.95 0.95 0.94 0.95 0.96 0.96 0.97 0.97 1.09 1.1 1.42 1.43 1.41 1.41 1.23 1.28 1.19 1.2 1.18 1.18 1.19 1.21 1.14 1.15 1.14 1.15 1.14 1.15 1.14 1.14 1.16 1.15 1.18 1.2 1.17 1.15 2.03 2.02 2.25 2.17 1.13 1.37 1.12 1.11 1.08 1.08 0.99 0.99 1 1 1.07 1.05 2.94 2.94 2.96 2.95 2.97 2.96 2.98 2.97 2.99 2.98 2.18 2.38 2.57 2.27 3.05 3.04 3.07 3.05 3.08 3.07 3.1 3.08 3.12 3.11 3.14 3.13 3.17 3.15 3.19 3.17 3.22 3.2 3.24 3.22 3.26 3.24 3.28 3.26 3.31 3.29 3.34 3.31 3.36 3.34 3.39 3.36 3.21 3.23 3.45 3.42 3.42 3.46 2.18 2.2 2.09 2.07 2.13 2.09 2.06 2.06 2.04 2.04 2.02 2.02 2.03 2.02 2.01 2 2.07 2.01 2.03 2.01 2.04 2.01 2.04 2.01 2.11 2.03 2.15 2.13 2.58 2.18 2.64 2.64 2.61 2.61 2.57 2.58 2.54 2.55 2.52 2.52 2.5 2.5 2.47 2.48 2.44 2.44 2.4 2.41 2.38 2.38 2.35 2.36 2.33 2.33 2.32 2.32 2.3 2.3 2.28 2.28 2.27 2.26 2.25 2.25 2.23 2.23 2.21 2.21 2.2 2.19 2.18 2.18 2.17 2.17 2.16 2.16 2.15 2.15 2.14 2.14 2.14 2.15 2.14 2.14 2.1 2.11 2.12 2.09 2.21 2.14 2.21 2.2 2.21 2.2 2.21 2.2 2.22 2.18 2.24 2.23 2.24 2.23 2.23 2.23 2.23 2.22 2.24 2.2 2.24 2.22 2.24 2.22 2.24 2.23 2.25 2.23 2.23 2.24 2.25 2.24 2.25 2.24 2.26 2.25 2.26 2.25 2.22 2.26 2.24 2.23 2.25 2.23 2.26 2.24 2.19 2.25 2.14 2.17 2.16 2.14 2.04 2.11 1.94 2.02 1.83 1.9 1.71 1.81 1.63 1.69 1.56 1.61 1.58 1.56 1.59 1.57 1.6 1.58 1.61 1.59 1.62 1.6 1.63 1.62 1.64 1.63 1.65 1.64 1.67 1.65 1.69 1.67 1.7 1.69 1.72 1.7 1.75 1.73 1.77 1.74 1.8 1.76 1.83 1.8 1.85 1.82 1.87 1.85 1.91 1.88 1.94 1.91 1.96 1.94 2 1.96 2.04 1.99 2.07 2.04 2.26 2.1 2.38 2.27 3.24 3.23 3.26 3.22 3.33 3.27 3.4 3.34 3.48 3.42 3.57 3.5 3.66 3.59 3.77 3.68 3.88 3.79 3.98 3.9 3.93 3.98 3.9 3.93 3.86 3.88 3.82 3.85 3.8 3.81 3.76 3.79 3.72 3.75 3.68 3.71 3.67 3.67 3.63 -5.792 -3.933 -1.81439 -5.792 -3.933 -1.81439 1.13486e+09 pippo 1.13486e+09
ODOM -5.792 -3.933 -1.81439 0 0 0 0 pippo 0
NEFF 11.5899 0 pippo 0
ODOM -5.847 -4.066 -2.1249 0 0 0 1.13486e+09 pippo 1.13486e+09
ODOM -5.942 -4.151 -2.2181 0 0 0 1.13486e+09 pippo 1.13486e+09
ODOM -5.993 -4.242 -2.32297 0 0 0 1.13486e+09 pippo 1.13486e+09
ODOM -6.07 -4.324 -2.29738 0 0 0 1.13486e+09 pippo 1.13486e+09
ODOM -6.109 -4.372 -2.17528 0 0 0 1.13486e+09 pippo 1.13486e+09
ODOM -6.139 -4.497 -1.92365 0 0 0 1.13486e+09 pippo 1.13486e+09
FLASER 361 0.98 81.91 0.98 81.91 81.91 81.91 81.91 81.91 81.91 81.91 81.91 81.91 81.91 81.91 81.91 81.91 81.91 81.91 81.91 81.91 81.91 81.91 81.91 0.52 81.91 0.51 0.52 0.52 0.51 0.51 0.51 0.51 0.51 0.53 0.53 0.53 0.53 0.54 0.54 0.55 0.55 0.55 0.55 0.56 0.56 0.57 0.57 0.57 0.57 0.59 0.58 0.6 0.59 0.62 0.6 0.62 0.61 0.64 0.62 0.68 0.65 0.8 0.67 1.11 0.78 1.51 1.38 1.52 1.53 1.47 1.49 1.58 1.48 1.63 1.61 1.52 1.66 1.5 1.49 1.87 1.58 1.81 2.28 1.64 1.7 1.93 1.7 1.9 2.02 1.94 1.88 1.96 2.12 1.55 1.73 1.58 1.53 2.25 1.65 2.26 2.26 2.04 2.18 2.24 2.05 2.26 2.27 2.27 2.27 2.27 2.28 2.28 2.28 1.84 2.29 1.48 1.53 1.87 1.53 2.3 2.3 2.31 2.31 2.32 2.32 2.32 2.33 2.33 2.33 2.33 2.34 2.35 2.35 2.36 2.36 2.37 2.37 2.38 2.38 2.39 2.39 2.4 2.39 2.41 2.41 2.44 2.44 2.45 2.45 2.47 2.47 2.49 2.49 2.49 2.49 2.51 2.51 2.53 2.53 2.54 2.54 2.56 2.56 2.58 2.58 2.6 2.6 2.62 2.62 2.41 2.46 2.67 2.61 2.7 2.69 2.01 2.69 1.75 1.84 1.31 1.59 1.55 1.34 1.58 1.58 2.44 1.36 81.91 81.91 81.91 81.91 1.26 81.91 1.26 1.27 1.29 1.26 81.91 81.91 2.08 81.91 1.62 2.06 1.49 1.54 1.47 1.48 1.47 1.49 1.48 1.5 1.52 1.54 1.49 1.57 1.51 1.51 1.61 1.59 1.87 1.86 1.88 1.89 1.86 1.87 1.83 1.84 1.82 1.82 1.8 1.8 1.79 1.78 1.76 1.78 1.75 1.76 1.74 1.75 1.73 1.74 1.71 1.72 1.7 1.7 1.69 1.7 1.68 1.69 1.67 1.68 1.66 1.67 1.66 1.66 1.66 1.66 1.65 1.65 1.64 1.65 1.64 1.64 1.63 1.64 1.63 1.63 1.63 1.64 1.63 1.63 1.63 1.63 1.63 1.63 1.62 1.62 1.62 1.62 1.62 1.62 1.62 1.62 1.62 1.62 1.62 1.62 1.62 1.62 1.62 1.62 1.61 1.62 1.62 1.63 1.62 1.62 1.61 1.62 1.62 1.62 1.65 1.64 1.72 1.72 1.73 1.73 1.74 1.74 1.75 1.74 1.81 1.79 1.83 1.83 1.83 1.83 1.84 1.85 1.86 1.86 1.86 1.86 1.88 1.87 1.89 1.89 1.91 1.91 1.92 1.92 1.94 1.94 1.95 1.95 1.98 1.96 1.99 1.98 2.01 2 2.03 2.04 2 2.02 1.99 1.98 2.01 2.01 2.03 2.02 2.05 2.04 2.01 2.01 1.99 1.99 2 2 1.96 1.96 -6.349 -4.454 -2.29553 -6.349 -4.454 -2.29553 1.13486e+09 pippo 1.13486e+09
ODOM -6.349 -4.454 -2.29553 0 0 0 0 pippo 0
NEFF 2.83446 0 pippo 0
ODOM -6.385 -4.534 -1.99671 0 0 0 1.13486e+09 pippo 1.13486e+09
ODOM -6.384 -4.521 -1.52492 0 0 0 1.13486e+09 pippo 1.13486e+09
FLASER 361 1.57 1.99 1.74 1.54 1.71 1.71 1.54 1.84 2.04 1.75 1.83 1.83 1.75 1.48 2.07 1.39 1.41 2.13 1.47 2.13 2.14 2.13 2.14 2.13 2.14 1.92 2.08 2.13 1.91 2.13 2.13 2.13 2.14 2.13 2.14 1.44 2.14 1.35 1.36 2.13 1.36 2.14 2.14 2.15 2.15 2.15 2.15 2.16 2.15 2.16 2.16 2.17 2.17 2.18 2.17 2.18 2.17 2.19 2.19 2.2 2.18 2.2 2.19 2.21 2.2 2.21 2.21 2.22 2.22 2.23 2.23 2.25 2.24 2.26 2.25 2.28 2.26 2.29 2.28 2.3 2.3 2.31 2.31 2.33 2.32 2.33 2.33 2.35 2.34 2.37 2.35 2.38 2.37 2.39 2.38 2.41 2.41 2.41 2.44 2.22 2.27 2.48 2.37 2.5 2.49 1.72 2.51 1.63 1.63 2.41 1.77 2.34 2.39 2.28 2.33 2.27 2.28 2.21 2.27 81.91 81.91 81.91 81.91 1.08 81.91 1.06 1.08 1.09 1.09 81.91 1.11 81.91 81.91 1.89 1.93 1.89 1.91 1.85 1.89 1.84 1.86 1.81 1.83 1.78 1.8 1.76 1.79 1.73 1.75 1.72 1.72 1.71 1.72 1.69 1.7 1.67 1.69 1.65 1.67 1.64 1.65 1.63 1.64 1.61 1.63 1.6 1.61 1.6 1.6 1.58 1.6 1.57 1.58 1.56 1.57 1.55 1.56 1.54 1.56 1.54 1.54 1.52 1.54 1.52 1.52 1.5 1.52 1.5 1.5 1.49 1.49 1.48 1.48 1.47 1.48 1.47 1.47 1.47 1.48 1.46 1.47 1.46 1.47 1.46 1.47 1.46 1.46 1.45 1.46 1.46 1.46 1.46 1.47 1.46 1.47 1.46 1.46 1.46 1.46 1.46 1.47 1.47 1.47 1.47 1.47 1.47 1.47 1.46 1.47 1.47 1.47 1.47 1.48 1.48 1.48 1.48 1.48 1.48 1.49 1.49 1.5 1.49 1.48 1.5 1.5 1.61 1.56 1.62 1.61 1.64 1.64 1.64 1.64 1.64 1.64 1.72 1.72 1.73 1.73 1.75 1.74 1.75 1.76 1.77 1.76 1.79 1.78 1.81 1.8 1.82 1.82 1.83 1.83 1.85 1.84 1.88 1.87 1.9 1.89 1.93 1.93 1.94 1.93 1.97 1.97 1.97 1.99 1.93 1.93 1.96 1.95 1.98 1.97 2 2 1.97 1.98 1.95 1.97 1.96 1.96 1.95 1.96 1.92 1.93 1.88 1.9 1.85 1.86 1.82 1.84 1.79 1.81 1.76 1.77 1.74 1.75 1.71 1.72 1.69 1.7 1.66 1.68 1.65 1.65 1.62 1.63 1.6 1.61 1.59 1.59 1.56 1.57 1.61 1.59 1.66 1.63 1.71 1.68 1.76 1.75 1.81 1.8 1.88 1.84 1.94 1.91 2.03 2 2.13 2.09 2.22 2.18 2.32 2.28 4.43 2.38 4.34 4.36 4.31 4.33 -6.447 -4.64 -1.71867 -6.447 -4.64 -1.71867 1.13486e+09 pippo 1.13486e+09
ODOM -6.447 -4.64 -1.71867 0 0 0 0 pippo 0
NEFF 29.9397 0 pippo 0
ODOM -6.487 -4.756 -1.42914 0 0 0 1.13486e+09 pippo 1.13486e+09
ODOM -6.454 -4.82 -1.12444 0 0 0 1.13486e+09 pippo 1.13486e+09
ODOM -6.37 -5.015 -0.955739 0 0 0 1.13486e+09 pippo 1.13486e+09
FLASER 361 81.91 81.91 81.91 81.91 81.91 1.87 81.91 1.82 1.86 1.78 1.81 1.75 1.78 1.71 1.74 1.68 1.71 1.63 1.67 1.61 1.64 1.59 1.61 1.57 1.59 1.55 1.57 1.53 1.54 1.51 1.52 1.48 1.5 1.46 1.47 1.43 1.45 1.41 1.43 1.39 1.41 1.38 1.39 1.36 1.38 1.35 1.36 1.34 1.35 1.33 1.34 1.31 1.33 1.3 1.31 1.29 1.3 1.27 1.29 1.27 1.28 1.25 1.27 1.24 1.26 1.23 1.25 1.23 1.24 1.22 1.23 1.21 1.22 1.2 1.21 1.19 1.2 1.19 1.2 1.18 1.19 1.17 1.18 1.17 1.18 1.16 1.17 1.16 1.17 1.16 1.16 1.16 1.16 1.16 1.16 1.16 1.16 1.15 1.16 1.15 1.16 1.15 1.16 1.15 1.16 1.15 1.16 1.15 1.15 1.15 1.16 1.15 1.16 1.15 1.15 1.15 1.15 1.15 1.16 1.15 1.16 1.16 1.16 1.16 1.16 1.16 1.16 1.16 1.16 1.16 1.16 1.16 1.17 1.17 1.17 1.17 1.18 1.18 1.18 1.18 1.19 1.2 1.2 1.21 1.21 1.27 1.22 1.31 1.31 1.32 1.33 1.33 1.34 1.34 1.35 1.37 1.35 1.42 1.41 1.44 1.44 1.45 1.45 1.47 1.45 1.48 1.47 1.49 1.48 1.51 1.5 1.52 1.51 1.53 1.54 1.55 1.55 1.58 1.58 1.6 1.59 1.62 1.61 1.64 1.63 1.67 1.66 1.69 1.68 1.73 1.71 1.69 1.75 1.67 1.68 1.71 1.69 1.73 1.72 1.76 1.76 1.74 1.77 1.74 1.74 1.73 1.73 1.76 1.75 1.72 1.74 1.7 1.71 1.68 1.69 1.66 1.67 1.63 1.65 1.61 1.63 1.59 1.6 1.58 1.59 1.56 1.58 1.55 1.56 1.53 1.55 1.52 1.53 1.5 1.52 1.5 1.5 1.48 1.49 1.48 1.48 1.45 1.46 1.44 1.45 1.44 1.44 1.46 1.43 1.53 1.5 1.6 1.57 1.68 1.65 1.77 1.74 1.86 1.83 2.03 1.98 2.18 2.12 2.28 2.29 4.17 4.18 4.16 4.16 4.15 4.15 4.13 4.15 4.13 4.14 4.13 4.13 4.11 4.13 5.04 5 5.01 5.01 5.01 5.01 5.01 5.01 5.04 5.04 5.06 5.05 5.14 5.16 5.08 5.11 5.11 5.08 5.84 5.42 2.11 7 5.24 2.5 5.27 5.25 5.31 5.31 2.62 5.33 2.05 2.58 5.41 5.38 5.11 5.43 4.81 4.85 2.5 4.76 2.2 2.34 4.48 2.13 4.52 4.51 5.41 4.53 5.25 5.37 5.04 5.12 5.01 5 5.27 5.06 5.48 5.32 5.44 5.43 3.43 3.5 5.63 3.46 5.72 5.67 3.37 3.84 3.38 3.38 3.42 3.43 3.39 3.43 3.5 3.43 12.23 12.35 12.06 12.16 2.3 6.07 -6.415 -4.963 -0.805739 -6.415 -4.963 -0.805739 1.13486e+09 pippo 1.13486e+09
ODOM -6.415 -4.963 -0.805739 0 0 0 0 pippo 0
NEFF 29.6829 0 pippo 0
ODOM -6.369 -5.044 -0.61022 0 0 0 1.13486e+09 pippo 1.13486e+09
ODOM -6.238 -5.063 -0.336558 0 0 0 1.13486e+09 pippo 1.13486e+09
ODOM -6.132 -5.107 -0.092949 0 0 0 1.13486e+09 pippo 1.13486e+09
FLASER 361 0.96 0.96 0.96 0.96 0.96 0.95 0.95 0.95 0.95 0.95 0.95 0.95 0.95 0.95 0.95 0.95 0.95 0.96 0.96 0.96 0.96 0.96 0.96 0.96 0.96 0.97 0.96 1.04 0.97 1.06 1.06 1.07 1.06 1.07 1.07 1.07 1.07 1.07 1.08 1.08 1.08 1.11 1.09 1.14 1.12 1.16 1.15 1.18 1.18 1.16 1.18 1.17 1.19 1.18 1.2 1.2 1.2 1.19 1.2 1.22 1.22 1.22 1.22 1.24 1.23 1.25 1.24 1.25 1.25 1.26 1.26 1.27 1.26 1.28 1.27 1.3 1.28 1.3 1.3 1.33 1.32 1.34 1.34 1.36 1.36 1.39 1.38 1.41 1.39 1.38 1.43 1.36 1.36 1.39 1.38 1.41 1.4 1.43 1.42 1.46 1.44 1.43 1.47 1.43 1.43 1.41 1.43 1.42 1.41 1.43 1.44 1.41 1.43 1.37 1.41 1.37 1.39 1.34 1.37 1.33 1.35 1.32 1.32 1.3 1.3 1.29 1.3 1.27 1.28 1.26 1.28 1.24 1.27 1.22 1.25 1.22 1.24 1.22 1.22 1.2 1.21 1.19 1.2 1.18 1.19 1.17 1.18 1.15 1.17 1.15 1.16 1.15 1.15 1.13 1.14 1.12 1.13 1.12 1.13 1.11 1.12 1.21 1.18 1.28 1.24 1.36 1.32 1.45 1.41 1.58 1.51 1.79 1.71 1.99 1.89 3.87 1.93 3.89 3.88 3.88 3.89 3.87 3.88 3.87 3.87 3.87 3.87 4.74 4.21 4.74 4.75 4.74 4.76 4.75 4.75 4.75 4.75 4.85 4.77 4.86 4.88 4.8 4.83 4.84 4.82 6.76 5.25 5.02 6.81 4.98 5 5.01 5.01 2.27 5.08 1.87 2.09 5.13 1.83 5.18 5.16 5.37 5.21 81.91 2.45 4.51 4.56 81.91 4.47 4.28 4.35 4.28 4.28 2.3 2.37 2.22 81.91 4.98 5.1 4.87 1.93 4.86 4.84 5.12 4.96 5.29 5.32 5.33 5.29 5.43 5.39 3.4 3.44 5.65 3.29 5.79 5.85 3.7 3.75 3.21 3.23 3.26 3.29 3.25 3.24 3.32 3.28 5.99 6.01 5.92 6.03 6.18 6.09 6.07 6.13 11.69 11.75 11.82 10.1 12.33 2.23 8.21 8.25 8.17 8.18 81.91 8.17 81.91 81.91 7.1 81.91 1.9 81.91 6.48 6.56 6.52 6.5 6.54 81.91 2.32 2.36 2.3 2.3 2.33 2.32 2.29 2.32 2.37 2.3 2.35 2.35 2.31 2.32 2.33 2.34 81.91 2.28 2.16 2.11 1.99 2.01 5.29 5.29 5.32 5.31 6.61 5.37 5.18 5.17 5.22 5.17 3.45 7.05 6.95 6.99 3.95 6.92 3.68 3.77 3.52 3.58 3.44 3.45 3.47 3.45 3.49 3.48 3.53 3.51 3.56 3.53 3.6 3.59 81.91 3.59 81.91 81.91 81.91 81.91 81.91 81.91 -6.122 -5.105 0.032051 -6.122 -5.105 0.032051 1.13486e+09 pippo 1.13486e+09
ODOM -6.122 -5.105 0.032051 0 0 0 0 pippo 0
NEFF 29.6928 0 pippo 0
ODOM -5.96 -5.095 0.13233 0 0 0 1.13486e+09 pippo 1.13486e+09
ODOM -5.817 -5.082 0.146363 0 0 0 1.13486e+09 pippo 1.13486e+09
ODOM -5.711 -5.083 0.092775 0 0 0 1.13486e+09 pippo 1.13486e+09
ODOM -5.39 -5.048 -0.004134 0 0 0 1.13486e+09 pippo 1.13486e+09
ODOM -5.239 -5.048 -0.024235 0 0 0 1.13486e+09 pippo 1.13486e+09
ODOM -5.082 -5.069 -0.073357 0 0 0 1.13486e+09 pippo 1.13486e+09
ODOM -4.88 -5.084 -0.09178 0 0 0 1.13486e+09 pippo 1.13486e+09
FLASER 361 1.08 0.57 0.98 0.35 0.5 0.34 0.35 0.36 0.35 0.34 0.33 0.33 0.33 0.33 0.32 0.33 0.35 0.35 0.36 0.36 0.36 0.36 0.37 0.37 0.37 0.38 0.38 0.38 0.39 0.39 0.4 0.4 0.41 0.42 0.42 0.43 0.43 0.43 0.42 0.42 0.42 0.44 0.43 0.43 0.42 0.42 0.43 0.43 0.43 0.44 0.44 0.42 0.43 0.44 0.43 0.42 0.44 0.44 0.45 0.43 0.47 0.46 0.45 0.48 0.45 0.46 0.49 0.45 0.48 0.49 0.48 0.47 0.47 0.48 0.47 0.49 0.48 0.48 0.5 0.47 0.49 0.47 0.48 0.49 0.49 0.49 0.49 0.5 0.49 0.49 0.49 0.51 0.5 0.49 0.51 0.51 0.51 0.52 0.51 0.51 0.53 0.55 0.56 0.55 0.56 0.55 0.57 0.57 0.57 0.58 0.59 81.91 81.91 81.91 0.69 81.91 81.91 81.91 81.91 0.68 0.72 0.68 0.7 0.69 0.7 0.73 0.7 0.74 0.73 0.74 0.75 0.77 0.79 0.78 0.81 0.82 0.83 0.85 0.86 0.87 0.88 0.9 0.92 0.94 0.94 2.8 2.87 2.9 2.95 2.91 2.91 2.89 2.89 2.87 2.88 2.85 2.85 2.83 2.83 2.81 2.82 2.8 2.8 2.79 2.79 2.78 2.8 2.78 2.79 2.78 2.78 2.78 2.78 2.78 2.79 2.78 2.78 2.77 2.78 3.61 3.65 3.66 3.67 3.66 3.67 3.65 3.66 3.65 3.66 3.65 3.66 3.66 3.67 3.66 3.76 3.81 3.78 3.77 3.75 3.69 3.7 3.69 3.76 4.01 4.29 5.71 5.75 5.67 3.92 3.91 3.9 3.9 3.92 3.94 3.99 3.99 4.03 4.02 4.04 4.01 4.04 4.04 4.09 4.11 4.18 4.28 1.24 1.21 3.72 3.57 3.53 3.48 3.43 3.39 3.35 3.32 3.28 3.24 3.24 3.24 3.37 81.91 81.91 81.91 4.05 3.98 3.96 3.94 3.89 3.85 3.88 3.9 3.97 4.03 4.3 4.29 4.38 4.41 4.44 4.51 4.57 4.6 4.69 4.72 81.91 81.91 81.91 81.91 4.79 4.81 2.54 2.5 2.42 2.4 2.37 2.37 2.44 2.54 2.51 2.53 2.46 2.46 2.54 2.68 2.38 2.41 2.37 2.36 2.39 2.38 2.41 2.44 2.53 7.36 7.8 81.91 81.91 81.91 81.91 81.91 6.41 6.39 6.53 6.09 5.94 5.9 5.83 5.81 5.86 5.88 5.9 5.88 5.88 5.89 5.96 7.07 6.29 6.2 6.26 81.91 4.84 4.92 4.95 5.14 5.89 5.93 1.57 1.61 6.95 1.59 1.57 1.56 1.54 1.59 1.54 1.56 1.61 4.78 4.82 4.83 4.86 4.87 4.9 4.9 5.06 6.69 4.9 4.79 4.83 81.91 81.91 81.91 81.91 81.91 1.81 1.81 6.49 6.48 1.4 1.42 1.95 -5.051 -4.875 0.05822 -5.051 -4.875 0.05822 1.13486e+09 pippo 1.13486e+09
ODOM -5.051 -4.875 0.05822 0 0 0 0 pippo 0
NEFF 23.7902 0 pippo 0
ODOM -4.884 -4.868 0.079869 0 0 0 1.13486e+09 pippo 1.13486e+09
ODOM -4.701 -4.856 0.100725 0 0 0 1.13486e+09 pippo 1.13486e+09
ODOM -4.618 -4.858 0.075341 0 0 0 1.13486e+09 pippo 1.13486e+09
ODOM -4.47 -4.846 0.016498 0 0 0 1.13486e+09 pippo 1.13486e+09
ODOM -4.3 -4.833 0.042078 0 0 0 1.13486e+09 pippo 1.13486e+09
ODOM -4.165 -4.834 -0.030019 0 0 0 1.13486e+09 pippo 1.13486e+09
ODOM -3.999 -4.812 -0.218812 0 0 0 1.13486e+09 pippo 1.13486e+09
ODOM -3.945 -4.822 -0.776382 0 0 0 1.13486e+09 pippo 1.13486e+09
FLASER 361 81.91 81.91 81.91 81.91 81.91 81.91 81.91 81.91 81.91 81.91 81.91 81.91 81.91 81.91 0.4 81.91 0.41 81.91 81.91 81.91 81.91 81.91 81.91 81.91 81.91 81.91 81.91 0.37 0.36 0.35 0.35 0.39 0.44 81.91 81.91 81.91 81.91 81.91 81.91 81.91 81.91 81.91 81.91 81.91 81.91 81.91 81.91 81.91 81.91 81.91 81.91 81.91 1.77 1.77 1.76 1.74 1.89 1.87 4.62 4.65 3.89 4.13 3.92 3.97 5.51 3.86 5.51 5.5 5.53 5.52 4.19 5.53 81.91 4.15 81.91 3.83 5.63 3.85 5.65 5.65 5.66 5.66 5.21 5.34 5.16 5.16 5.22 5.22 3.73 3.79 3.58 3.64 3.45 3.51 3.44 3.43 3.48 3.46 3.51 3.49 3.55 3.53 3.59 3.56 3.62 3.6 3.63 3.64 3.66 3.63 3.7 3.67 3.77 3.71 3.92 3.91 3.84 3.86 1.27 1.27 1.2 1.22 1.18 1.17 1.17 1.17 1.15 1.16 1.16 1.16 1.18 1.17 1.19 1.18 1.21 1.2 1.23 1.22 1.26 1.24 1.28 1.26 1.3 1.29 1.33 1.31 1.35 1.33 1.37 1.36 1.4 1.38 1.44 1.42 1.47 1.45 1.51 1.48 1.55 1.52 1.58 1.56 1.61 1.58 1.65 1.62 1.7 1.67 1.75 1.72 1.82 1.78 1.86 1.84 1.83 1.84 1.82 1.82 1.8 1.8 1.78 1.78 1.76 1.76 1.75 1.75 1.74 1.74 1.72 1.72 1.71 1.71 1.7 1.69 1.68 1.68 1.67 1.68 1.66 1.67 1.65 1.65 1.64 1.64 1.62 1.63 1.61 1.62 1.62 1.61 1.62 1.62 1.61 1.61 1.62 1.61 1.63 1.62 1.64 1.64 1.62 1.62 2.5 1.64 2.55 2.5 2.54 2.53 2.54 2.53 2.54 2.53 2.55 2.53 2.55 2.54 2.56 2.54 2.55 2.55 2.57 2.55 2.58 2.56 2.73 2.56 2.67 2.69 2.66 2.66 2.62 2.65 2.61 2.61 2.61 2.61 4.57 2.61 4.43 4.51 4.3 4.35 2.81 4.23 2.8 2.81 2.8 2.78 2.83 2.81 2.91 2.84 2.93 2.91 2.97 2.93 2.97 2.97 2.98 2.95 3.01 2.98 3.08 3.04 81.91 3.05 3.25 81.91 4.72 4.68 2.67 4.74 2.6 2.64 2.57 2.59 2.54 2.55 2.48 2.51 2.45 2.47 2.41 2.44 2.38 2.4 2.35 2.37 2.31 2.33 2.35 2.31 2.4 2.37 2.97 2.42 3.02 3.04 3.04 3.01 3.12 3.05 3.56 3.13 3.69 3.61 3.87 3.76 4.08 3.92 4.06 4.08 4.03 4.04 4.1 4 8.57 4.14 8.54 8.5 8.64 8.57 4.56 4.65 4.49 4.51 4.46 4.5 4.49 4.44 4.64 4.6 6.65 4.62 81.91 6.57 81.91 81.91 81.91 81.91 81.91 -3.903 -4.83 -0.301382 -3.903 -4.83 -0.301382 1.13486e+09 pippo 1.13486e+09
ODOM -3.903 -4.83 -0.301382 0 0 0 0 pippo 0
NEFF 5.99027 0 pippo 0
ODOM -3.755 -4.863 -0.536849 0 0 0 1.13486e+09 pippo 1.13486e+09
ODOM -3.656 -4.905 -0.755641 0 0 0 1.13486e+09 pippo 1.13486e+09
ODOM -3.557 -5.014 -0.879973 0 0 0 1.13486e+09 pippo 1.13486e+09
