ODOM 0 0 0 0 0 0 0.000246 pippo 0.000246
ODOM 0 0 0 0 0 0 0.011612 pippo 0.011612
ODOM 0 0 0 0 0 0 0.204947 pippo 0.204947
ODOM 0 0 0 0 0 0 0.404839 pippo 0.404839
ODOM 0 0 0 0 0 0 0.564958 pippo 0.564958
ODOM 0 0 0 0 0 0 0.771842 pippo 0.771842
ODOM 0 0 0 0 0 0 0.967073 pippo 0.967073
ODOM 0 0 0 0 0 0 1.12473 pippo 1.12473
ODOM 0 0 0 0 0 0 1.32459 pippo 1.32459
ODOM 0 0 0 0 0 0 1.5245 pippo 1.5245
ODOM 0 0 0 0 0 0 1.88321 pippo 1.88321
ODOM 0 0 0 0 0 0 1.88456 pippo 1.88456
ODOM 0 0 0 0 0 0 2.08448 pippo 2.08448
ODOM 0 0 0 0 0 0 2.24647 pippo 2.24647
ODOM 0 0 0 0 0 0 2.44434 pippo 2.44434
ODOM 0 0 0 0 0 0 2.64438 pippo 2.64438
ODOM 0 0 0 0 0 0 2.80646 pippo 2.80646
ODOM 0 0 0 0 0 0 3.00631 pippo 3.00631
ODOM 0 0 0 0 0 0 3.20761 pippo 3.20761
ODOM 0 0 0 0 0 0 3.36463 pippo 3.36463
ODOM 0 0 0 0 0 0 3.56449 pippo 3.56449
ODOM 0 0 0 0 0 0 3.76657 pippo 3.76657
ODOM 0 0 0 0 0 0 3.92462 pippo 3.92462
ODOM 0 0 0 0 0 0 4.12547 pippo 4.12547
ODOM 0 0 0 0 0 0 4.32497 pippo 4.32497
ODOM 0 0 0 0 0 0 4.48461 pippo 4.48461
ODOM 0 0 0 0 0 0 4.8909 pippo 4.8909
ODOM 0 0 0 0 0 0 4.88503 pippo 4.88503
ODOM 0 0 0 0 0 0 5.08746 pippo 5.08746
ODOM 0 0 0 0 0 0 5.28535 pippo 5.28535
ODOM 0 0 0 0 0 0 5.44526 pippo 5.44526
ODOM 0 0 0 0 0 0 5.6451 pippo 5.6451
ODOM 0 0 0 0 0 0 5.84532 pippo 5.84532
ODOM 0 0 0 0 0 0 6.0448 pippo 6.0448
ODOM 0 0 0 0 0 0 6.24548 pippo 6.24548
ODOM 0 0 0 0 0 0 6.44692 pippo 6.44692
ODOM 0 0 0 0 0 0 6.64534 pippo 6.64534
ODOM 0 0 0 0 0 0 6.84521 pippo 6.84521
ODOM 0 0 0 0 0 0 7.04504 pippo 7.04504
ODOM 0 0 0 0 0 0 7.2449 pippo 7.2449
ODOM 0 0 0 0 0 0 7.44574 pippo 7.44574
ODOM 0 0 0 0 0 0 7.64557 pippo 7.64557
ODOM 0 0 0 0 0 0 7.84544 pippo 7.84544
ODOM 0 0 0 0 0 0 8.04724 pippo 8.04724
ODOM 0 0 0 0 0 0 8.24517 pippo 8.24517
ODOM 0 0 0 0 0 0 8.44497 pippo 8.44497
ODOM 0 0 0 0 0 0 8.65916 pippo 8.65916
ODOM 0 0 0 0 0 0 8.84569 pippo 8.84569
ODOM 0 0 0 0 0 0 9.048 pippo 9.048
ODOM 0 0 0 0 0 0 9.24539 pippo 9.24539
ODOM 0 0 0 0 0 0 9.44533 pippo 9.44533
ODOM 0 0 0 0 0 0 9.64747 pippo 9.64747
ODOM 0 0 0 0 0 0 9.84525 pippo 9.84525
ODOM 0 0 0 0 0 0 10.0458 pippo 10.0458
ODOM 0 0 0 0 0 0 10.2452 pippo 10.2452
ODOM 0 0 0 0 0 0 10.4473 pippo 10.4473
ODOM 0 0 0 0 0 0 10.6464 pippo 10.6464
ODOM 0 0 0 0 0 0 10.8452 pippo 10.8452
ODOM 0 0 0 0 0 0 11.0457 pippo 11.0457
ODOM 0 0 0 0 0 0 11.2459 pippo 11.2459
ODOM 0 0 0 0 0 0 11.456 pippo 11.456
ODOM 0 0 0 0 0 0 11.6479 pippo 11.6479
ODOM 0 0 0 0 0 0 11.8453 pippo 11.8453
ODOM 0 0 0 0 0 0 12.0453 pippo 12.0453
ODOM 0 0 0 0 0 0 12.2453 pippo 12.2453
ODOM 0 0 0 0 0 0 12.4478 pippo 12.4478
ODOM 0 0 0 0 0 0 12.6541 pippo 12.6541
ODOM 0 0 0 0 0 0 12.8457 pippo 12.8457
ODOM 0 0 0 0 0 0 13.0473 pippo 13.0473
ODOM 0 0 0 0 0 0 13.2454 pippo 13.2454
ODOM 0 0 0 0 0 0 13.446 pippo 13.446
ODOM 0 0 0 0 0 0 13.6461 pippo 13.6461
ODOM 0 0 0 0 0 0 13.8459 pippo 13.8459
ODOM 0 0 0 0 0 0 14.0458 pippo 14.0458
ODOM 0 0 0 0 0 0 14.2484 pippo 14.2484
ODOM 0 0 0 0 0 0 14.4463 pippo 14.4463
ODOM 0 0 0 0 0 0 14.6477 pippo 14.6477
ODOM 0 0 0 0 0 0 14.8482 pippo 14.8482
ODOM 0 0 0 0 0 0 15.046 pippo 15.046
ODOM 0 0 0 0 0 0 15.2459 pippo 15.2459
ODOM 0 0 0 0 0 0 15.4457 pippo 15.4457
ODOM 0 0 0 0 0 0 15.6483 pippo 15.6483
ODOM 0 0 0 0 0 0 15.8463 pippo 15.8463
ODOM 0 0 0 0 0 0 16.0462 pippo 16.0462
ODOM 0 0 0 0 0 0 16.2461 pippo 16.2461
ODOM 0 0 0 0 0 0 16.446 pippo 16.446
ODOM 0 0 0 0 0 0 16.6478 pippo 16.6478
ODOM 0 0 0 0 0 0 16.8464 pippo 16.8464
ODOM 0 0 0 0 0 0 17.0538 pippo 17.0538
ODOM 0 0 0 0 0 0 17.2458 pippo 17.2458
ODOM 0 0 0 0 0 0 17.4462 pippo 17.4462
ODOM 0 0 0 0 0 0 17.6461 pippo 17.6461
ODOM 0 0 0 0 0 0 17.846 pippo 17.846
ODOM 0 0 0 0 0 0 18.0465 pippo 18.0465
ODOM 0 0 0 0 0 0 18.246 pippo 18.246
ODOM 0 0 0 0 0 0 18.4478 pippo 18.4478
ODOM 0 0 0 0 0 0 18.6476 pippo 18.6476
ODOM 0 0 0 0 0 0 18.8462 pippo 18.8462
ODOM 0 0 0 0 0 0 19.046 pippo 19.046
ODOM 0 0 0 0 0 0 19.2465 pippo 19.2465
ODOM 0 0 0 0 0 0 19.4485 pippo 19.4485
ODOM 0 0 0 0 0 0 19.6476 pippo 19.6476
ODOM 0 0 0 0 0 0 19.8483 pippo 19.8483
ODOM 0 0 0 0 0 0 20.0462 pippo 20.0462
ODOM 0 0 0 0 0 0 20.256 pippo 20.256
ODOM 0 0 0 0 0 0 20.4466 pippo 20.4466
ODOM 0 0 0 0 0 0 20.6465 pippo 20.6465
ODOM 0 0 0 0 0 0 20.8465 pippo 20.8465
ODOM 0 0 0 0 0 0 21.0481 pippo 21.0481
ODOM 0 0 0 0 0 0 21.2463 pippo 21.2463
ODOM 0 0 0 0 0 0 21.4462 pippo 21.4462
ODOM 0 0 0 0 0 0 21.6479 pippo 21.6479
ODOM 0 0 0 0 0 0 21.8488 pippo 21.8488
ODOM 0 0 0 0 0 0 22.0465 pippo 22.0465
ODOM 0 0 0 0 0 0 22.2463 pippo 22.2463
ODOM 0 0 0 0 0 0 22.4464 pippo 22.4464
ODOM 0 0 0 0 0 0 22.6463 pippo 22.6463
ODOM 0 0 0 0 0 0 22.8468 pippo 22.8468
ODOM 0 0 0 0 0 0 23.0467 pippo 23.0467
ODOM 0 0 0 0 0 0 23.2466 pippo 23.2466
ODOM 0 0 0 0 0 0 23.4465 pippo 23.4465
ODOM 0 0 0 0 0 0 23.6465 pippo 23.6465
ODOM 0 0 0 0 0 0 23.8487 pippo 23.8487
ODOM 0 0 0 0 0 0 24.0481 pippo 24.0481
ODOM 0 0 0 0 0 0 24.2316 pippo 24.2316
ODOM 0 0 0 0 0 0 24.4267 pippo 24.4267
ODOM 0 0 0 0 0 0 24.6266 pippo 24.6266
ODOM 0 0 0 0 0 0 24.7869 pippo 24.7869
ODOM 0 0 0 0 0 0 24.9867 pippo 24.9867
ODOM 0 0 0 0 0 0 25.1887 pippo 25.1887
ODOM 0 0 0 0 0 0 25.3466 pippo 25.3466
ODOM 0 0 0 0 0 0 25.5466 pippo 25.5466
ODOM 0 0 0 0 0 0 26.5081 pippo 26.5081
ODOM 0 0 0 0 0 0 25.9068 pippo 25.9068
ODOM 0 0 0 0 0 0 26.1077 pippo 26.1077
ODOM 0 0 0 0 0 0 26.3075 pippo 26.3075
ODOM 0 0 0 0 0 0 26.4667 pippo 26.4667
ODOM 0 0 0 0 0 0 27.3446 pippo 27.3446
ODOM 0 0 0 0 0 0 26.8675 pippo 26.8675
ODOM 0 0 0 0 0 0 27.0323 pippo 27.0323
ODOM 0 0 0 0 0 0 27.2268 pippo 27.2268
ODOM 0 0 0 0 0 0 27.4296 pippo 27.4296
ODOM 0 0 0 0 0 0 27.5877 pippo 27.5877
ODOM 2.458e-06 -0.000999997 0 0 0 0 27.7902 pippo 27.7902
ODOM 0.0110024 -0.000972959 -0.006146 0 0 0 27.9892 pippo 27.9892
ODOM 0.0500023 -0.000877097 -0.018437 0 0 0 28.1472 pippo 28.1472
ODOM 0.132009 -0.00367553 -0.024582 0 0 0 28.3471 pippo 28.3471
ODOM 0.219012 -0.00446168 -5.20417e-18 0 0 0 28.9789 pippo 28.9789
ODOM 0.254012 -0.00437565 -5.20417e-18 0 0 0 29.2053 pippo 29.2053
ODOM 0.301014 -0.00526012 -0.006146 0 0 0 28.9076 pippo 28.9076
ODOM 0.341016 -0.0061618 -0.018437 0 0 0 29.2446 pippo 29.2446
ODOM 0.397016 -0.00602415 -0.006146 0 0 0 29.2968 pippo 29.2968
ODOM 0.473018 -0.00683734 -0.012291 0 0 0 29.6467 pippo 29.6467
ODOM 0.541023 -0.00867019 -0.018437 0 0 0 30.1754 pippo 30.1754
ODOM 0.595025 -0.00953746 -0.018437 0 0 0 30.01 pippo 30.01
ODOM 0.641028 -0.0104244 -0.030728 0 0 0 30.0969 pippo 30.0969
ODOM 0.683032 -0.0123211 -0.036873 0 0 0 31.5057 pippo 31.5057
ODOM 0.703035 -0.013272 -0.024582 0 0 0 31.0353 pippo 31.0353
ODOM 0.701035 -0.0132769 -0.030728 0 0 0 31.0871 pippo 31.0871
ODOM 0.698035 -0.0132843 -0.030728 0 0 0 31.0882 pippo 31.0882
ODOM 0.698035 -0.0132843 -0.030728 0 0 0 31.0891 pippo 31.0891
ODOM 0.698035 -0.0132843 -0.030728 0 0 0 31.2911 pippo 31.2911
ODOM 0.698035 -0.0132843 -0.030728 0 0 0 31.4275 pippo 31.4275
ODOM 0.698035 -0.0132843 -0.036873 0 0 0 31.6274 pippo 31.6274
ODOM 0.698035 -0.0132843 -0.05531 0 0 0 31.8279 pippo 31.8279
ODOM 0.698035 -0.0132843 -0.104474 0 0 0 32.028 pippo 32.028
ODOM 0.696032 -0.0122892 -0.159784 0 0 0 32.466 pippo 32.466
ODOM 0.697032 -0.0122867 -0.23353 0 0 0 32.6483 pippo 32.6483
ODOM 0.697032 -0.0122867 -0.34415 0 0 0 33.1085 pippo 33.1085
ODOM 0.698035 -0.0132843 -0.460915 0 0 0 32.9068 pippo 32.9068
FLASER 180 1.09 1.08 1.08 1.07 1.06 1.05 1.05 1.04 1.04 1.03 1.03 1.02 1.02 1.02 1.01 1.01 1.01 1 1 1 1 1 1 0.99 1 1 1 1 1 1 1 1 1.01 1.02 1.02 1.02 1.02 1.03 1.04 1.04 1.05 1.06 1.06 1.07 1.08 1.09 1.09 1.09 1.1 1.11 1.13 1.14 1.15 1.17 1.18 1.19 1.2 1.22 1.24 1.25 1.27 1.29 1.31 1.32 1.33 1.36 1.38 1.41 1.43 1.46 1.49 1.52 1.55 1.58 1.62 1.67 1.7 1.73 1.78 1.82 1.88 1.93 1.99 2.04 2.11 2.18 2.26 2.33 2.43 2.53 2.63 2.74 2.87 3.02 3.16 3.32 3.52 3.74 3.99 4.28 4.63 5.02 5.5 17.51 10.16 10.13 10.01 13.71 10.91 14.41 81.83 81.83 81.83 81.83 8.59 81.83 81.83 81.83 81.83 81.83 81.83 7.73 81.83 81.83 81.83 81.83 81.83 6.93 6.97 7.03 7.04 3.56 3.39 3.23 3.08 2.95 2.83 2.72 2.62 2.52 2.44 2.37 2.29 2.22 2.16 2.1 2.05 1.99 1.94 1.88 1.83 1.8 1.76 1.72 1.68 1.64 1.62 1.58 1.56 1.53 1.5 1.49 1.46 1.45 1.5 1.47 1.38 1.36 1.34 1.33 1.32 1.3 1.29 1.27 1.26 1.24 1.23 1.24 1.22 1.23 0.600266 -0.0320327 -0.354665 0.600266 -0.0320327 -0.354665 32.9068 pippo 32.9068
ODOM 0.600266 -0.0320327 -0.354665 0 0 0 0 pippo 0
NEFF 15
ODOM 0.600266 -0.0320327 -0.41612 0 0 0 33.1783 pippo 33.1783
ODOM 0.600266 -0.0320327 -0.471429 0 0 0 33.2282 pippo 33.2282
ODOM 0.600266 -0.0320327 -0.532885 0 0 0 33.5064 pippo 33.5064
ODOM 0.600266 -0.0320327 -0.606631 0 0 0 33.6278 pippo 33.6278
ODOM 0.600266 -0.0320327 -0.680378 0 0 0 33.867 pippo 33.867
ODOM 0.600266 -0.0320327 -0.735687 0 0 0 34.0795 pippo 34.0795
ODOM 0.601477 -0.0339124 -0.790997 0 0 0 34.2285 pippo 34.2285
ODOM 0.60258 -0.034798 -0.852452 0 0 0 34.4402 pippo 34.4402
ODOM 0.60258 -0.034798 -0.920053 0 0 0 35.1051 pippo 35.1051
FLASER 180 1.72 1.66 1.64 1.6 1.57 1.53 1.51 1.47 1.44 1.42 1.4 1.37 1.34 1.32 1.3 1.28 1.26 1.24 1.22 1.2 1.18 1.17 1.17 1.15 1.13 1.12 1.1 1.09 1.09 1.07 1.07 1.05 1.04 1.02 1.02 1.01 1.02 1.01 1 1 0.99 0.98 0.98 0.98 0.98 0.97 0.96 0.97 0.96 0.96 0.96 0.95 0.95 0.95 0.95 0.95 0.96 0.95 0.96 0.95 0.96 0.96 0.96 0.96 0.96 0.96 0.96 0.97 0.97 0.98 0.98 0.98 0.98 0.99 0.99 1 1.01 1.02 1.02 1.03 1.04 1.05 1.06 1.07 1.08 1.09 1.1 1.11 1.12 1.13 1.15 1.17 1.18 1.19 1.21 1.23 1.25 1.27 1.29 1.31 1.33 1.34 1.38 1.4 1.42 1.45 1.49 1.52 1.56 1.59 1.62 1.66 1.7 1.75 1.8 1.84 1.9 1.96 2.03 2.09 2.16 2.24 2.33 2.43 2.52 2.64 2.76 2.89 3.05 3.2 3.39 3.61 3.87 4.16 4.49 4.89 5.34 10.52 10.17 10.16 10.04 13.75 10.93 13.31 16.44 81.83 81.83 81.83 8.55 81.83 81.83 81.83 81.83 81.83 81.83 7.78 81.83 81.83 81.83 81.83 81.83 6.98 7.02 7.06 7.1 7.11 3.45 3.28 3.13 3 2.89 2.78 2.68 2.58 2.48 2.42 2.35 2.28 2.2 2.15 0.68231 -0.100086 -0.938803 0.68231 -0.100086 -0.938803 35.1051 pippo 35.1051
ODOM 0.68231 -0.100086 -0.938803 0 0 0 0 pippo 0
NEFF 14.8386
ODOM 0.681134 -0.098184 -0.987967 0 0 0 35.0084 pippo 35.0084
ODOM 0.681044 -0.097188 -1.02484 0 0 0 35.0869 pippo 35.0869
ODOM 0.679869 -0.095286 -1.08015 0 0 0 35.3923 pippo 35.3923
ODOM 0.678693 -0.0933839 -1.14775 0 0 0 35.4278 pippo 35.4278
ODOM 0.677518 -0.0914818 -1.21535 0 0 0 35.9047 pippo 35.9047
ODOM 0.677248 -0.0884939 -1.27681 0 0 0 35.9059 pippo 35.9059
ODOM 0.675983 -0.0855959 -1.35055 0 0 0 36.057 pippo 36.057
ODOM 0.675713 -0.082608 -1.41201 0 0 0 36.4589 pippo 36.4589
ODOM 0.675533 -0.0806161 -1.44274 0 0 0 36.46 pippo 36.46
FLASER 180 4.07 4 4.02 4.08 4.13 4.18 4.23 4.29 4.35 4.37 4.33 4.26 4.3 4.29 3.16 3.21 3.28 3.32 3.34 3.36 3.4 3.46 3.48 3.42 81.83 81.83 81.83 81.83 3.55 1.71 1.68 1.64 1.59 1.57 1.53 1.5 1.48 1.44 1.42 1.39 1.37 1.34 1.31 1.3 1.27 1.26 1.24 1.22 1.2 1.19 1.18 1.16 1.15 1.13 1.11 1.1 1.09 1.09 1.07 1.07 1.06 1.04 1.04 1.03 1.02 1.02 1.01 1 0.99 0.99 0.98 0.98 0.98 0.97 0.97 0.96 0.96 0.96 0.96 0.95 0.95 0.95 0.95 0.95 0.95 0.94 0.94 0.94 0.94 0.94 0.94 0.95 0.95 0.95 0.95 0.96 0.96 0.96 0.97 0.97 0.98 0.98 0.98 0.99 1 1 1.01 1.02 1.02 1.03 1.04 1.05 1.06 1.07 1.09 1.09 1.09 1.11 1.12 1.14 1.15 1.18 1.19 1.2 1.22 1.24 1.27 1.28 1.3 1.31 1.34 1.37 1.4 1.42 1.45 1.48 1.52 1.55 1.57 1.61 1.66 1.7 1.74 1.79 1.84 1.9 1.95 2.01 2.08 2.13 2.22 2.29 2.39 2.5 2.6 2.72 2.85 3 3.17 3.35 3.57 3.81 4.08 4.4 4.79 5.23 5.73 10.23 10.2 10.11 10.22 10.98 81.83 9.43 81.83 81.83 81.83 8.7 8.82 81.83 0.697411 -0.0946492 -1.44586 0.697411 -0.0946492 -1.44586 36.46 pippo 36.46
ODOM 0.697411 -0.0946492 -1.44586 0 0 0 0 pippo 0
NEFF 14.3546
ODOM 0.697411 -0.0946492 -1.48273 0 0 0 36.628 pippo 36.628
ODOM 0.697237 -0.0926567 -1.5319 0 0 0 36.9827 pippo 36.9827
ODOM 0.697064 -0.0906642 -1.60564 0 0 0 37.0371 pippo 37.0371
ODOM 0.696891 -0.0886718 -1.66095 0 0 0 37.442 pippo 37.442
ODOM 0.697713 -0.0865926 -1.71012 0 0 0 37.4432 pippo 37.4432
ODOM 0.69754 -0.0846001 -1.75928 0 0 0 37.6313 pippo 37.6313
ODOM 0.698363 -0.0825209 -1.82688 0 0 0 37.9693 pippo 37.9693
ODOM 0.699099 -0.0794455 -1.89448 0 0 0 38.0371 pippo 38.0371
ODOM 0.699835 -0.0763701 -1.94979 0 0 0 38.4407 pippo 38.4407
FLASER 180 3 3.14 3.27 3.43 3.63 3.83 4.03 4.29 4.56 4.89 5.28 5.7 6.25 6.85 8.57 8.5 8.47 8.44 8.44 8.42 8.42 8.41 8.41 8.4 8.41 8.41 8.42 4.09 3.99 3.98 4.01 4.06 4.12 4.16 4.23 4.28 4.32 4.34 4.29 4.28 4.26 4.27 3.14 3.18 3.27 3.28 3.31 3.35 3.4 3.44 3.48 3.42 81.83 81.83 81.83 81.83 3.54 1.73 1.68 1.64 1.61 1.58 1.54 1.51 1.48 1.45 1.43 1.4 1.37 1.35 1.33 1.32 1.29 1.27 1.25 1.23 1.22 1.2 1.19 1.18 1.15 1.14 1.13 1.12 1.11 1.1 1.09 1.08 1.07 1.06 1.05 1.04 1.03 1.02 1.02 1.02 1 1 1 0.99 0.99 0.99 0.99 0.98 0.98 0.97 0.97 0.97 0.97 0.96 0.96 0.96 0.96 0.96 0.96 0.96 0.96 0.96 0.97 0.97 0.97 0.97 0.98 0.98 0.99 0.99 0.99 1 1 1.01 1.01 1.02 1.03 1.03 1.04 1.05 1.06 1.07 1.09 1.1 1.1 1.1 1.11 1.13 1.14 1.16 1.18 1.19 1.2 1.22 1.24 1.26 1.28 1.28 1.31 1.32 1.35 1.37 1.4 1.43 1.45 1.47 1.51 1.53 1.57 1.6 1.65 1.68 1.72 1.77 1.81 1.87 1.92 1.98 2.03 2.12 2.17 2.25 2.33 2.42 0.67925 -0.0698662 -1.92604 0.67925 -0.0698662 -1.92604 38.4407 pippo 38.4407
ODOM 0.67925 -0.0698662 -1.92604 0 0 0 0 pippo 0
NEFF 14.3641
ODOM 0.680133 -0.068762 -1.97521 0 0 0 38.4418 pippo 38.4418
ODOM 0.681017 -0.0676577 -2.03666 0 0 0 38.6281 pippo 38.6281
ODOM 0.68179 -0.0655596 -2.10426 0 0 0 38.9973 pippo 38.9973
ODOM 0.683447 -0.0623572 -2.17801 0 0 0 39.0285 pippo 39.0285
ODOM 0.68433 -0.0612529 -2.22717 0 0 0 39.3702 pippo 39.3702
ODOM 0.686097 -0.0590444 -2.27634 0 0 0 39.4472 pippo 39.4472
ODOM 0.686981 -0.0579402 -2.33779 0 0 0 39.819 pippo 39.819
ODOM 0.687975 -0.0578298 -2.41154 0 0 0 39.8283 pippo 39.8283
ODOM 0.689742 -0.0556213 -2.48528 0 0 0 40.2196 pippo 40.2196
FLASER 180 1.36 1.37 1.39 1.42 1.44 1.45 1.48 1.51 1.53 1.57 1.6 1.64 1.67 1.72 1.75 1.8 3.27 3.22 3.18 3.16 3.15 3.11 3.09 3.06 2.8 2.77 2.75 2.73 2.68 2.76 2.87 3.01 3.14 3.29 3.45 3.65 3.87 4.09 4.34 4.66 5.06 5.43 5.89 6.52 7.22 8.48 8.44 8.44 8.41 8.4 8.39 8.38 8.38 8.37 8.38 8.38 8.39 8.4 4.06 3.96 3.95 4 4.04 4.1 4.16 4.21 4.28 4.32 4.29 4.25 4.24 4.22 4.25 3.11 3.18 3.26 3.29 3.31 3.35 3.39 3.42 3.47 3.41 81.83 81.83 81.83 81.83 3.51 81.83 81.83 1.68 1.65 1.61 1.58 1.55 1.52 1.49 1.46 1.44 1.42 1.4 1.38 1.35 1.34 1.32 1.29 1.28 1.26 1.23 1.22 1.2 1.2 1.18 1.17 1.16 1.14 1.13 1.12 1.12 1.11 1.11 1.1 1.09 1.08 1.07 1.07 1.06 1.05 1.05 1.04 1.04 1.03 1.03 1.02 1.02 1.02 1.02 1.02 1.01 1.01 1.01 1.01 1.01 1.01 1.01 1.01 1.02 1.02 1.02 1.02 1.02 1.02 1.03 1.03 1.03 1.04 1.04 1.05 1.05 1.06 1.07 1.08 1.08 1.08 1.09 1.1 1.1 1.11 1.12 1.13 1.14 1.16 1.17 1.18 1.19 1.2 1.21 1.23 1.25 1.27 0.670819 -0.0364461 -2.45341 0.670819 -0.0364461 -2.45341 40.2196 pippo 40.2196
ODOM 0.670819 -0.0364461 -2.45341 0 0 0 0 pippo 0
NEFF 14.5039
ODOM 0.672657 -0.0351723 -2.49643 0 0 0 40.2288 pippo 40.2288
ODOM 0.674495 -0.0338985 -2.54559 0 0 0 41.4112 pippo 41.4112
ODOM 0.676333 -0.0326246 -2.6009 0 0 0 41.4218 pippo 41.4218
ODOM 0.67817 -0.0313508 -2.64392 0 0 0 40.8672 pippo 40.8672
ODOM 0.67916 -0.0312088 -2.69923 0 0 0 41.2638 pippo 41.2638
ODOM 0.681988 -0.029793 -2.76683 0 0 0 41.265 pippo 41.265
ODOM 0.683968 -0.0295091 -2.82828 0 0 0 41.4571 pippo 41.4571
ODOM 0.683968 -0.0295091 -2.87745 0 0 0 41.8223 pippo 41.8223
ODOM 0.685947 -0.0292251 -2.9389 0 0 0 41.8285 pippo 41.8285
ODOM 0.687785 -0.0279513 -2.99421 0 0 0 42.1923 pippo 42.1923
FLASER 180 1.07 1.06 1.06 1.05 1.07 1.08 1.07 1.07 1.08 1.08 1.09 1.09 1.09 1.1 1.1 1.11 1.11 1.12 1.13 1.13 1.13 1.14 1.16 1.17 1.17 1.19 1.2 1.22 1.23 1.24 1.26 1.27 1.29 1.31 1.33 1.36 1.37 1.4 1.43 1.44 1.47 1.5 1.52 1.57 1.61 1.65 1.68 1.72 5.12 3.18 3.15 3.14 3.11 3.08 3.05 3.03 2.78 2.75 2.73 2.7 2.68 2.68 2.8 2.93 3.07 3.22 3.38 3.58 3.81 4.05 4.32 4.64 5.04 5.42 5.92 6.57 8.53 8.45 8.43 8.41 8.4 8.38 8.38 8.37 8.38 8.36 8.38 8.39 8.39 8.4 4.08 3.97 3.94 3.99 4.03 4.09 4.15 4.21 4.27 4.31 4.32 4.22 4.12 4.21 3.43 4.26 3.2 3.27 3.3 3.33 3.36 3.39 3.44 3.48 3.45 81.83 81.83 81.83 81.83 81.83 81.83 81.83 81.83 1.73 1.69 1.65 1.62 1.59 1.56 1.53 1.51 1.48 1.46 1.43 1.41 1.39 1.37 1.35 1.34 1.32 1.31 1.29 1.28 1.26 1.25 1.23 1.22 1.21 1.2 1.19 1.18 1.17 1.16 1.15 1.14 1.13 1.13 1.13 1.12 1.12 1.12 1.11 1.1 1.1 1.1 1.09 1.09 1.09 1.08 1.08 1.08 1.08 1.08 1.07 1.07 1.07 1.07 1.07 1.07 1.08 0.660285 0.0466338 -2.99044 0.660285 0.0466338 -2.99044 42.1923 pippo 42.1923
ODOM 0.660285 0.0466338 -2.99044 0 0 0 0 pippo 0
NEFF 12.312
ODOM 0.66142 0.0457902 -3.03345 0 0 0 42.2871 pippo 42.2871
ODOM 0.66142 0.0457902 -3.1072 0 0 0 42.8869 pippo 42.8869
ODOM 0.664388 0.0462273 3.10838 0 0 0 42.8989 pippo 42.8989
ODOM 0.664388 0.0462273 3.07766 0 0 0 42.8573 pippo 42.8573
ODOM 0.664388 0.0462273 3.03464 0 0 0 43.1569 pippo 43.1569
ODOM 0.664388 0.0462273 2.96089 0 0 0 43.2288 pippo 43.2288
ODOM 0.664388 0.0462273 2.881 0 0 0 43.6289 pippo 43.6289
ODOM 0.665377 0.046373 2.82569 0 0 0 43.6302 pippo 43.6302
ODOM 0.665523 0.0453837 2.77653 0 0 0 43.9271 pippo 43.9271
FLASER 180 1.08 1.07 1.07 1.06 1.06 1.05 1.04 1.04 1.03 1.03 1.03 1.02 1.01 1.01 1 1 1 1 0.99 0.99 0.99 0.99 0.99 0.97 0.98 0.99 0.99 0.99 0.99 0.99 0.99 1 1 1 1 1.01 1.02 1.03 1.03 1.04 1.04 1.04 1.05 1.06 1.05 1.06 1.07 1.08 1.09 1.1 1.1 1.11 1.13 1.13 1.14 1.15 1.16 1.18 1.2 1.2 1.22 1.24 1.26 1.27 1.29 1.31 1.33 1.36 1.37 1.4 1.44 1.45 1.48 1.52 1.56 1.59 1.64 1.67 1.74 3.15 3.14 3.12 3.09 3.06 3.05 3.03 2.77 2.74 2.71 2.69 2.67 2.64 2.79 2.93 3.07 3.23 3.41 3.61 3.86 4.11 4.4 4.75 5.16 5.63 6.25 6.95 8.48 8.45 8.43 8.41 8.39 8.38 8.38 8.38 8.39 8.38 8.39 8.39 8.41 4.16 4.06 3.95 3.97 4.03 4.07 4.13 4.19 4.26 4.3 4.36 4.31 4.26 4.26 4.26 4.27 3.34 3.23 3.3 3.34 3.37 3.41 3.45 3.5 3.52 3.47 81.83 81.83 81.83 81.83 3.59 81.83 81.83 1.76 1.75 1.72 1.69 1.66 1.62 1.6 1.57 1.55 1.52 1.49 1.46 1.45 1.43 1.41 1.38 1.37 1.36 1.35 1.33 1.32 1.3 1.29 1.27 1.26 1.25 1.24 1.22 0.656165 0.0812728 2.77968 0.656165 0.0812728 2.77968 43.9271 pippo 43.9271
ODOM 0.656165 0.0812728 2.77968 0 0 0 0 pippo 0
NEFF 11.729
ODOM 0.657154 0.0814216 2.71823 0 0 0 44.1777 pippo 44.1777
ODOM 0.657154 0.0814216 2.65677 0 0 0 44.2771 pippo 44.2771
ODOM 0.657154 0.0814216 2.59531 0 0 0 44.6301 pippo 44.6301
ODOM 0.658291 0.0805816 2.53386 0 0 0 44.6313 pippo 44.6313
ODOM 0.659429 0.0797416 2.4724 0 0 0 44.8374 pippo 44.8374
ODOM 0.659429 0.0797416 2.42324 0 0 0 45.0516 pippo 45.0516
ODOM 0.659429 0.0797416 2.36793 0 0 0 45.2312 pippo 45.2312
ODOM 0.659429 0.0797416 2.30647 0 0 0 45.579 pippo 45.579
ODOM 0.659429 0.0797416 2.25117 0 0 0 45.6295 pippo 45.6295
FLASER 180 1.54 1.51 1.49 1.45 1.43 1.41 1.45 1.41 1.33 1.3 1.29 1.26 1.25 1.23 1.21 1.19 1.18 1.16 1.14 1.13 1.12 1.11 1.09 1.09 1.07 1.06 1.05 1.04 1.04 1.03 1.02 1.02 1.01 1 1 0.98 0.99 0.98 0.98 0.98 0.98 0.97 0.97 0.97 0.97 0.97 0.96 0.97 0.96 0.96 0.95 0.96 0.96 0.96 0.97 0.96 0.97 0.97 0.97 0.97 0.97 0.97 0.97 0.98 0.99 0.97 0.98 0.99 1 1 1 1.01 1.02 1.02 1.03 1.04 1.05 1.06 1.07 1.07 1.08 1.09 1.1 1.12 1.13 1.14 1.15 1.14 1.17 1.19 1.2 1.21 1.23 1.25 1.27 1.28 1.3 1.33 1.35 1.38 1.39 1.44 1.46 1.49 1.52 1.56 1.61 1.65 1.7 3.15 3.13 3.1 3.08 3.07 3.05 3.03 2.77 2.75 2.73 2.7 2.68 2.66 2.8 2.94 3.1 3.28 3.47 3.7 3.93 4.23 4.56 4.99 5.43 5.98 6.69 8.54 8.47 8.46 8.44 8.43 8.42 8.41 8.41 8.41 8.41 8.43 8.44 8.43 8.45 4.15 4.04 3.99 4.04 4.09 4.15 4.2 4.28 4.33 4.38 4.38 4.35 4.22 4.31 4.3 4.31 3.19 3.33 3.37 3.4 3.43 3.47 3.52 3.54 3.46 81.83 81.83 81.83 81.83 3.63 81.83 0.685387 0.112968 2.27307 0.685387 0.112968 2.27307 45.6295 pippo 45.6295
ODOM 0.685387 0.112968 2.27307 0 0 0 0 pippo 0
NEFF 11.5012
ODOM 0.684231 0.113783 2.20546 0 0 0 46.0725 pippo 46.0725
ODOM 0.684231 0.113783 2.14401 0 0 0 46.0737 pippo 46.0737
ODOM 0.685216 0.113953 2.09485 0 0 0 46.3073 pippo 46.3073
ODOM 0.685216 0.113953 2.02724 0 0 0 46.5782 pippo 46.5782
ODOM 0.685387 0.112968 1.9535 0 0 0 46.6296 pippo 46.6296
ODOM 0.685387 0.112968 1.89819 0 0 0 47.054 pippo 47.054
ODOM 0.685387 0.112968 1.84288 0 0 0 47.1076 pippo 47.1076
ODOM 0.685557 0.111983 1.77528 0 0 0 47.3071 pippo 47.3071
ODOM 0.685728 0.110997 1.7298 0 0 0 48.2865 pippo 48.2865
FLASER 180 7.78 81.83 81.83 81.83 81.83 81.83 6.97 6.99 7.04 3.38 3.19 3.03 2.86 2.74 2.61 2.5 2.38 2.32 2.23 2.14 2.08 2 1.93 1.88 1.83 1.77 1.73 1.68 1.63 1.6 1.55 1.52 1.48 1.45 1.43 1.38 1.37 1.37 1.42 1.29 1.27 1.25 1.23 1.22 1.2 1.17 1.16 1.14 1.13 1.12 1.11 1.1 1.08 1.07 1.07 1.06 1.05 1.04 1.03 1.02 1.01 1.01 1 0.99 0.99 0.99 0.98 0.97 0.97 0.98 0.97 0.96 0.95 0.96 0.95 0.95 0.95 0.95 0.95 0.95 0.94 0.95 0.94 0.94 0.94 0.94 0.94 0.94 0.94 0.94 0.95 0.95 0.95 0.95 0.95 0.96 0.96 0.98 0.97 0.97 0.96 0.99 1 1 1 1.01 1.02 1.02 1.03 1.04 1.04 1.06 1.07 1.07 1.08 1.09 1.1 1.12 1.13 1.15 1.15 1.16 1.18 1.2 1.22 1.25 1.27 1.28 1.31 1.33 1.36 1.39 1.41 1.45 1.47 1.51 1.53 1.59 1.62 1.67 1.73 1.79 3.16 3.13 3.11 3.09 3.07 3.06 2.8 2.78 2.76 2.73 2.69 2.78 2.92 3.07 3.23 3.44 3.67 3.92 4.2 4.55 4.95 5.42 5.98 6.72 8.59 8.52 8.51 8.49 8.47 8.47 8.47 8.47 8.47 8.47 8.47 8.48 8.49 8.5 0.703978 0.128525 1.73827 0.703978 0.128525 1.73827 48.2865 pippo 48.2865
ODOM 0.703978 0.128525 1.73827 0 0 0 0 pippo 0
NEFF 11.1292
ODOM 0.703441 0.131476 1.67681 0 0 0 48.4018 pippo 48.4018
ODOM 0.703084 0.133444 1.61536 0 0 0 47.83 pippo 47.83
ODOM 0.70371 0.135591 1.54776 0 0 0 48.1709 pippo 48.1709
ODOM 0.703353 0.137559 1.49245 0 0 0 48.2304 pippo 48.2304
ODOM 0.703979 0.139705 1.43714 0 0 0 48.8438 pippo 48.8438
ODOM 0.704605 0.141852 1.36339 0 0 0 48.8603 pippo 48.8603
ODOM 0.704248 0.143819 1.30808 0 0 0 48.9375 pippo 48.9375
ODOM 0.705053 0.144982 1.26506 0 0 0 49.1889 pippo 49.1889
ODOM 0.704874 0.145966 1.20361 0 0 0 49.2872 pippo 49.2872
FLASER 180 3.18 3.31 3.46 3.62 3.81 4.02 4.28 4.55 4.88 5.25 5.67 14.21 10.35 10.17 10.06 10.14 81.83 81.83 9.37 81.83 81.83 81.83 8.6 8.76 81.83 81.83 81.83 81.83 81.83 7.74 81.83 81.83 81.83 81.83 81.83 6.91 6.95 6.98 3.36 3.16 3 2.84 2.71 2.58 2.48 2.36 2.29 2.21 2.12 2.05 1.98 1.91 1.85 1.79 1.75 1.69 1.64 1.59 1.55 1.52 1.49 1.46 1.43 1.39 1.37 1.34 1.32 1.32 1.35 1.27 1.24 1.22 1.19 1.18 1.16 1.16 1.14 1.12 1.11 1.1 1.08 1.07 1.06 1.05 1.05 1.04 1.04 1.02 1.01 1 1 0.98 0.99 0.98 0.97 0.97 0.96 0.96 0.96 0.95 0.94 0.94 0.94 0.93 0.93 0.93 0.92 0.92 0.92 0.91 0.91 0.91 0.91 0.91 0.92 0.92 0.92 0.92 0.92 0.92 0.93 0.93 0.93 0.95 0.95 0.95 0.95 0.97 0.97 0.97 0.97 0.98 0.98 1 1 1 1.01 1.01 1.02 1.04 1.04 1.05 1.06 1.06 1.08 1.1 1.11 1.11 1.13 1.14 1.15 1.16 1.18 1.21 1.22 1.23 1.26 1.28 1.3 1.33 1.36 1.38 1.4 1.44 1.47 1.52 1.54 1.59 1.64 1.68 1.73 1.8 3.18 3.16 3.14 3.12 3.11 3.05 2.84 2.81 0.751426 0.167579 1.23173 0.751426 0.167579 1.23173 49.2872 pippo 49.2872
ODOM 0.751426 0.167579 1.23173 0 0 0 0 pippo 0
NEFF 10.3668
ODOM 0.75297 0.169949 1.15798 0 0 0 49.6324 pippo 49.6324
ODOM 0.753743 0.171134 1.09653 0 0 0 49.6576 pippo 49.6576
ODOM 0.753743 0.171134 1.04736 0 0 0 49.8305 pippo 49.8305
ODOM 0.754308 0.173297 0.992054 0 0 0 50.1682 pippo 50.1682
ODOM 0.755852 0.175667 0.918308 0 0 0 50.5952 pippo 50.5952
ODOM 0.758375 0.178243 0.856853 0 0 0 50.9846 pippo 50.9846
ODOM 0.759353 0.178449 0.826125 0 0 0 50.9857 pippo 50.9857
ODOM 0.760898 0.180819 0.76467 0 0 0 50.9866 pippo 50.9866
ODOM 0.763627 0.182416 0.697069 0 0 0 51.0102 pippo 51.0102
FLASER 180 1.47 1.49 1.51 1.54 1.55 1.57 1.6 1.63 1.64 1.67 1.71 1.75 1.76 1.81 1.85 1.89 1.93 1.98 2.02 2.07 2.13 2.19 2.25 2.31 2.38 2.46 2.54 2.62 2.72 2.82 2.93 3.05 3.17 3.33 3.48 3.68 3.88 4.1 4.36 4.66 5.01 5.41 13.73 10.5 10.14 10.11 10 17.35 10.88 14.35 81.83 81.83 81.83 8.47 8.54 81.83 81.83 81.83 81.83 81.83 81.83 81.83 81.83 81.83 81.83 81.83 81.83 6.86 6.91 6.93 3.32 3.13 2.97 2.82 2.7 2.57 2.46 2.36 2.27 2.2 2.11 2.04 1.98 1.89 1.85 1.79 1.74 1.69 1.65 1.6 1.57 1.53 1.49 1.46 1.43 1.4 1.37 1.35 1.32 1.3 1.3 1.3 1.34 1.22 1.2 1.19 1.17 1.15 1.15 1.12 1.11 1.1 1.09 1.08 1.05 1.06 1.05 1.04 1.03 1.02 1.02 1 1 0.99 0.99 0.99 0.99 0.99 0.98 0.97 0.97 0.97 0.97 0.96 0.96 0.95 0.95 0.95 0.94 0.94 0.94 0.95 0.95 0.94 0.94 0.95 0.95 0.95 0.95 0.96 0.96 0.96 0.96 0.96 0.96 0.96 0.98 0.98 0.97 0.98 0.98 0.98 0.99 1 1 1.01 1 1.03 1.03 1.03 1.05 1.05 1.05 1.07 1.08 1.09 1.1 1.11 1.13 1.15 0.713503 0.152719 0.678319 0.713503 0.152719 0.678319 51.0102 pippo 51.0102
ODOM 0.713503 0.152719 0.678319 0 0 0 0 pippo 0
NEFF 9.28687
ODOM 0.715279 0.154077 0.623009 0 0 0 51.3467 pippo 51.3467
ODOM 0.716074 0.155247 0.57999 0 0 0 51.3703 pippo 51.3703
ODOM 0.71785 0.156605 0.530826 0 0 0 51.7715 pippo 51.7715
ODOM 0.720608 0.158151 0.475516 0 0 0 51.7876 pippo 51.7876
ODOM 0.722573 0.158528 0.420207 0 0 0 51.9376 pippo 51.9376
ODOM 0.723555 0.158716 0.34646 0 0 0 52.3375 pippo 52.3375
ODOM 0.725331 0.160074 0.309587 0 0 0 52.3385 pippo 52.3385
ODOM 0.727296 0.16045 0.254277 0 0 0 52.49 pippo 52.49
ODOM 0.728278 0.160638 0.192822 0 0 0 52.8345 pippo 52.8345
ODOM 0.72926 0.160826 0.131367 0 0 0 52.8578 pippo 52.8578
FLASER 180 1.16 1.16 1.16 1.16 1.17 1.17 1.18 1.19 1.19 1.2 1.2 1.2 1.21 1.22 1.23 1.24 1.25 1.25 1.26 1.26 1.27 1.28 1.3 1.31 1.32 1.34 1.34 1.37 1.38 1.39 1.41 1.43 1.45 1.47 1.49 1.52 1.54 1.56 1.59 1.61 1.64 1.68 1.71 1.75 1.78 1.82 1.86 1.89 1.94 1.99 2.05 2.1 2.17 2.22 2.3 2.36 2.44 2.53 2.62 2.72 2.82 2.93 3.06 3.19 3.35 3.5 3.69 3.91 4.14 4.42 4.75 5.12 5.55 17.49 10.21 10.07 9.97 10.03 81.83 81.83 9.23 81.83 81.83 81.83 8.45 81.83 81.83 81.83 81.83 81.83 81.83 7.64 81.83 81.83 81.83 81.83 81.83 6.81 6.86 6.88 6.91 3.33 3.14 2.97 2.85 2.71 2.6 2.48 2.39 2.29 2.23 2.14 2.08 2 1.95 1.89 1.83 1.78 1.73 1.69 1.65 1.6 1.56 1.54 1.5 1.47 1.44 1.41 1.39 1.37 1.34 1.32 1.3 1.29 1.34 1.35 1.22 1.21 1.19 1.18 1.16 1.16 1.15 1.13 1.12 1.11 1.09 1.08 1.08 1.07 1.06 1.06 1.05 1.04 1.04 1.03 1.03 1.02 1.03 1.01 1.01 1.01 1 1 1 1 1 0.99 0.99 0.99 0.99 0.98 0.98 0.99 0.99 0.99 0.99 0.99 0.99 0.99 0.702575 0.0987872 0.145938 0.702575 0.0987872 0.145938 52.8578 pippo 52.8578
ODOM 0.702575 0.0987872 0.145938 0 0 0 0 pippo 0
NEFF 9.67313
ODOM 0.703554 0.0989895 0.0906281 0 0 0 53.0976 pippo 53.0976
ODOM 0.703554 0.0989895 0.0414641 0 0 0 53.3958 pippo 53.3958
ODOM 0.703554 0.0989895 0.0230281 0 0 0 53.4177 pippo 53.4177
ODOM 0.703554 0.0989895 -0.0138459 0 0 0 53.6475 pippo 53.6475
ODOM 0.704736 0.0982124 -0.0384279 0 0 0 53.9918 pippo 53.9918
ODOM 0.704736 0.0982124 -0.0384279 0 0 0 54.0077 pippo 54.0077
ODOM 0.704736 0.0982124 -0.0384279 0 0 0 54.2673 pippo 54.2673
ODOM 0.704736 0.0982124 -0.0322819 0 0 0 54.5482 pippo 54.5482
ODOM 0.704736 0.0982124 -0.0322819 0 0 0 54.5494 pippo 54.5494
ODOM 0.704736 0.0982124 -0.0322819 0 0 0 55.3483 pippo 55.3483
ODOM 0.706694 0.098617 -0.0261369 0 0 0 54.9306 pippo 54.9306
ODOM 0.710814 0.0984469 -0.0261369 0 0 0 55.0904 pippo 55.0904
ODOM 0.736511 0.0976285 -0.0138459 0 0 0 55.2911 pippo 55.2911
ODOM 0.795941 0.0966307 -0.0261369 0 0 0 55.5048 pippo 55.5048
ODOM 0.88637 0.0938673 -0.0322819 0 0 0 55.8859 pippo 55.8859
ODOM 0.95718 0.0921568 -0.0322819 0 0 0 55.8871 pippo 55.8871
ODOM 1.00466 0.0897107 -0.0507189 0 0 0 56.0506 pippo 56.0506
ODOM 1.02721 0.0892647 -0.0630099 0 0 0 56.3754 pippo 56.3754
ODOM 1.07391 0.085637 -0.0568639 0 0 0 56.4373 pippo 56.4373
ODOM 1.14101 0.082138 -0.0630099 0 0 0 57.5717 pippo 57.5717
ODOM 1.21263 0.0765103 -0.0753009 0 0 0 56.8773 pippo 56.8773
ODOM 1.27483 0.0719998 -0.0875919 0 0 0 57.1021 pippo 57.1021
ODOM 1.32683 0.0674249 -0.0998829 0 0 0 57.2105 pippo 57.2105
ODOM 1.37687 0.0624455 -0.0998829 0 0 0 57.5596 pippo 57.5596
ODOM 1.43849 0.0557741 -0.0998829 0 0 0 57.6105 pippo 57.6105
ODOM 1.50522 0.0491348 -0.0998829 0 0 0 57.98 pippo 57.98
ODOM 1.56782 0.0426657 -0.112174 0 0 0 58.011 pippo 58.011
ODOM 1.6212 0.0363345 -0.11832 0 0 0 58.3486 pippo 58.3486
ODOM 1.67361 0.029801 -0.124465 0 0 0 58.4274 pippo 58.4274
ODOM 1.73229 0.0225226 -0.130611 0 0 0 58.7818 pippo 58.7818
FLASER 180 1.01 1.01 1.01 1.01 1.01 1.01 1 1 1.01 1 1 1.01 1.01 1.01 1.01 1.01 1.02 1.02 1.02 1.02 1.03 1.03 1.03 1.03 1.03 1.03 1.04 1.05 1.06 1.07 1.07 1.08 1.08 1.09 1.1 1.11 1.13 1.14 1.15 1.16 1.16 1.18 1.19 1.21 1.23 1.24 1.26 1.27 1.28 1.3 1.32 1.35 1.37 1.4 1.41 1.44 1.47 1.51 1.53 1.57 1.6 1.63 1.67 1.71 1.76 1.8 1.86 1.91 1.95 2.01 2.09 2.15 2.23 2.29 2.38 2.47 2.57 2.68 2.8 2.93 3.08 3.23 3.42 3.65 3.9 4.17 4.48 12.47 9.46 9.1 9.08 8.96 9.04 9.52 9.84 12.23 81.83 81.83 81.83 81.83 7.46 81.83 7.49 81.83 81.83 81.83 81.83 81.83 6.69 81.83 81.83 81.83 81.83 81.83 81.83 81.83 5.93 5.95 5.98 6.03 6.08 5.84 5.74 6 5.91 2.54 2.45 2.37 2.29 2.22 2.16 2.11 2.04 2 1.94 1.89 1.85 1.82 1.78 1.73 1.69 1.66 1.64 1.61 1.58 1.57 1.53 1.51 1.49 1.45 1.43 1.41 1.39 1.37 1.35 1.34 1.33 1.31 1.3 1.29 1.27 1.26 1.25 1.24 1.22 1.22 1.21 1.21 1.2 1.19 1.18 1.18 1.17 1.17 1.16 1.16 1.15 1.14 1.14 1.14 1.7152 -0.0105664 -0.110296 1.7152 -0.0105664 -0.110296 58.7818 pippo 58.7818
ODOM 1.7152 -0.0105664 -0.110296 0 0 0 0 pippo 0
NEFF 10.5656
ODOM 1.78174 -0.0189961 -0.116441 0 0 0 58.8114 pippo 58.8114
ODOM 1.84588 -0.0259201 -0.116441 0 0 0 59.2117 pippo 59.2117
ODOM 1.9008 -0.0328934 -0.116441 0 0 0 59.2277 pippo 59.2277
ODOM 1.95138 -0.0388053 -0.110296 0 0 0 59.4873 pippo 59.4873
ODOM 2.01237 -0.0454207 -0.116441 0 0 0 60.5734 pippo 60.5734
ODOM 2.07891 -0.0538504 -0.128732 0 0 0 59.8115 pippo 59.8115
ODOM 2.13915 -0.061663 -0.141023 0 0 0 60.2163 pippo 60.2163
ODOM 2.19017 -0.069525 -0.153314 0 0 0 60.2377 pippo 60.2377
ODOM 2.24336 -0.0779176 -0.165605 0 0 0 60.4874 pippo 60.4874
ODOM 2.30862 -0.0897166 -0.184042 0 0 0 60.8415 pippo 60.8415
ODOM 2.37192 -0.10196 -0.190187 0 0 0 60.8426 pippo 60.8426
ODOM 2.4287 -0.112611 -0.196333 0 0 0 61.0719 pippo 61.0719
ODOM 2.48354 -0.123707 -0.196333 0 0 0 61.3673 pippo 61.3673
ODOM 2.54054 -0.135333 -0.208624 0 0 0 61.4474 pippo 61.4474
ODOM 2.60092 -0.148243 -0.21477 0 0 0 62.6476 pippo 62.6476
ODOM 2.65935 -0.161597 -0.220915 0 0 0 61.8775 pippo 61.8775
ODOM 2.71658 -0.174198 -0.227061 0 0 0 62.181 pippo 62.181
FLASER 180 0.86 0.86 0.85 0.85 0.84 0.84 0.84 0.84 0.84 0.84 0.84 0.84 0.83 0.83 0.84 0.84 0.84 0.84 0.84 0.84 0.84 0.85 0.85 0.85 0.86 0.85 0.86 0.86 0.86 0.87 0.87 0.87 0.88 0.89 0.9 0.91 0.91 0.92 0.93 0.94 0.94 0.96 0.96 0.96 0.97 0.98 1 1.01 1.02 1.03 1.05 1.06 1.07 1.09 1.1 1.13 1.15 1.16 1.18 1.21 1.23 1.25 1.28 1.3 1.33 1.37 1.4 1.43 1.46 1.51 1.54 1.58 1.63 1.68 1.72 1.79 1.84 1.91 1.98 2.06 2.14 2.23 2.33 2.45 2.55 2.7 2.85 3.03 3.21 3.44 5.79 11.83 8.47 8.12 8.09 8.01 8 81.83 8.85 11.36 11.25 14.38 81.83 81.83 81.83 6.49 6.54 81.83 6.51 81.83 81.83 81.83 81.83 81.83 81.83 81.83 5.77 81.83 81.83 81.83 81.83 81.83 81.83 81.83 81.83 5.06 5.09 5.14 5.18 5.23 5.27 5.06 4.96 5.2 5.17 5.05 4.91 4.78 4.82 4.88 4.94 4.5 4.57 4.63 5.07 5.06 5.13 1.85 1.82 1.78 1.75 1.73 1.7 1.66 1.64 1.62 1.59 1.58 1.55 1.53 1.52 1.5 1.48 1.47 1.45 1.45 1.43 1.42 1.41 1.39 1.38 1.37 1.36 1.36 1.35 1.34 1.34 1.33 1.33 1.33 2.6954 -0.127325 -0.183299 2.6954 -0.127325 -0.183299 62.181 pippo 62.181
ODOM 2.6954 -0.127325 -0.183299 0 0 0 0 pippo 0
NEFF 9.70815
ODOM 2.75216 -0.137675 -0.183299 0 0 0 62.2278 pippo 62.2278
ODOM 2.80919 -0.148989 -0.183299 0 0 0 62.4277 pippo 62.4277
ODOM 2.86718 -0.160039 -0.183299 0 0 0 63.4672 pippo 63.4672
ODOM 2.92368 -0.169425 -0.183299 0 0 0 62.8575 pippo 62.8575
ODOM 2.98167 -0.180475 -0.177153 0 0 0 63.2709 pippo 63.2709
ODOM 3.04062 -0.19126 -0.183299 0 0 0 63.2721 pippo 63.2721
ODOM 3.09861 -0.20231 -0.19559 0 0 0 63.4775 pippo 63.4775
ODOM 3.15371 -0.214154 -0.201735 0 0 0 63.7713 pippo 63.7713
ODOM 3.21074 -0.225468 -0.214026 0 0 0 63.8474 pippo 63.8474
ODOM 3.27049 -0.239146 -0.220172 0 0 0 64.1978 pippo 64.1978
ODOM 3.32804 -0.25239 -0.232463 0 0 0 64.2578 pippo 64.2578
ODOM 3.3834 -0.265198 -0.232463 0 0 0 64.4122 pippo 64.4122
ODOM 3.4378 -0.27827 -0.238608 0 0 0 64.7847 pippo 64.7847
ODOM 3.49781 -0.292913 -0.238608 0 0 0 64.8278 pippo 64.8278
ODOM 3.55563 -0.307121 -0.250899 0 0 0 65.0574 pippo 65.0574
ODOM 3.6103 -0.321157 -0.250899 0 0 0 65.4166 pippo 65.4166
ODOM 3.66522 -0.336159 -0.257045 0 0 0 65.4178 pippo 65.4178
ODOM 3.72427 -0.351066 -0.250899 0 0 0 65.6122 pippo 65.6122
FLASER 180 0.63 0.63 0.63 0.63 0.63 0.62 0.63 0.63 0.63 0.62 0.62 0.62 0.62 0.63 0.63 0.63 0.63 0.63 0.63 0.63 0.63 0.63 0.63 0.64 0.64 0.64 0.64 0.65 0.65 0.66 0.66 0.67 0.67 0.67 0.67 0.68 0.68 0.69 0.69 0.7 0.71 0.72 0.72 0.73 0.73 0.74 0.75 0.76 0.76 0.77 0.78 0.79 0.81 0.82 0.84 0.86 0.87 0.88 0.9 0.92 0.94 0.95 0.97 0.99 1.01 1.04 1.06 1.08 1.11 1.16 1.18 1.21 1.25 1.29 1.34 1.38 1.42 1.49 1.55 1.6 1.68 1.76 1.84 1.94 2.05 2.16 2.29 2.44 2.63 10.62 14.49 7.41 7.07 7.05 7.03 6.98 7.06 11.67 7.83 10.23 6.27 13.12 6.18 81.83 81.83 81.83 81.83 5.51 5.64 81.83 5.56 81.83 81.83 81.83 81.83 81.83 81.83 81.83 81.83 4.87 81.83 81.83 81.83 81.83 81.83 81.83 81.83 81.83 81.83 81.83 81.83 4.24 81.83 4.33 81.83 4.46 81.83 81.83 4.37 4.27 4.22 4.54 4.43 4.35 4.26 4.19 4.14 4.18 4.26 4.34 4.29 3.95 3.99 4.09 4.54 4.61 4.75 4.85 6.33 6.47 6.69 4.62 4.63 6.8 6.72 6.67 5.98 5.93 5.91 6.1 6.43 5.95 6.34 4.86 4.89 4.9 4.92 4.93 6.17 1.55 3.71764 -0.301622 -0.154024 3.71764 -0.301622 -0.154024 65.6122 pippo 65.6122
ODOM 3.71764 -0.301622 -0.154024 0 0 0 0 pippo 0
NEFF 10.2563
ODOM 3.77972 -0.310035 -0.129442 0 0 0 65.9557 pippo 65.9557
ODOM 3.83793 -0.316715 -0.0925692 0 0 0 66.0119 pippo 66.0119
ODOM 3.89191 -0.320728 -0.0556962 0 0 0 66.4616 pippo 66.4616
ODOM 3.9487 -0.323671 -0.0495502 0 0 0 66.4629 pippo 66.4629
ODOM 4.00957 -0.326121 -0.0556962 0 0 0 66.6576 pippo 66.6576
ODOM 4.06987 -0.329863 -0.0679872 0 0 0 66.9667 pippo 66.9667
ODOM 4.1283 -0.334318 -0.0741332 0 0 0 67.0122 pippo 67.0122
ODOM 4.18358 -0.338908 -0.0864242 0 0 0 67.472 pippo 67.472
ODOM 4.24014 -0.344076 -0.0925692 0 0 0 67.4732 pippo 67.4732
ODOM 4.30022 -0.350043 -0.111006 0 0 0 68.1594 pippo 68.1594
ODOM 4.36194 -0.357521 -0.123297 0 0 0 68.0368 pippo 68.0368
ODOM 4.41922 -0.364558 -0.129442 0 0 0 68.038 pippo 68.038
ODOM 4.47556 -0.371951 -0.141733 0 0 0 68.2123 pippo 68.2123
ODOM 4.53355 -0.380856 -0.141733 0 0 0 68.6282 pippo 68.6282
ODOM 4.59118 -0.388827 -0.147879 0 0 0 68.6293 pippo 68.6293
ODOM 4.6501 -0.397375 -0.135588 0 0 0 68.8119 pippo 68.8119
ODOM 4.70738 -0.404412 -0.0987152 0 0 0 69.1791 pippo 69.1791
ODOM 4.76581 -0.408866 -0.0556962 0 0 0 69.2279 pippo 69.2279
FLASER 180 0.51 0.51 0.52 0.51 0.51 0.51 0.51 0.51 0.51 0.51 0.51 0.51 0.51 0.51 0.52 0.52 0.52 0.52 0.52 0.52 0.52 0.52 0.52 0.52 0.52 0.53 0.54 0.55 0.55 0.55 0.56 0.56 0.57 0.57 0.58 0.58 0.58 0.59 0.6 0.6 0.61 0.62 0.63 0.64 0.65 0.66 0.66 0.67 0.69 0.7 0.71 0.73 0.73 0.74 0.76 0.78 0.79 0.82 0.84 0.85 0.87 0.89 0.93 0.96 0.98 1.01 1.05 1.08 1.11 1.16 1.2 1.25 1.29 1.36 1.41 1.48 1.56 1.67 3.51 3.49 3.76 13.07 13.51 10.1 6.35 6.06 6.04 6.02 5.96 5.99 6.08 81.83 6.83 81.83 10.32 10.09 5.17 81.83 81.83 81.83 81.83 81.83 4.55 4.51 4.62 81.83 81.83 4.57 81.83 81.83 81.83 81.83 81.83 81.83 81.83 81.83 81.83 81.83 81.83 3.96 81.83 81.83 81.83 3.77 3.75 3.7 3.69 3.63 3.62 3.58 3.56 3.53 3.5 3.49 3.44 81.83 81.83 81.83 81.83 81.83 81.83 81.83 3.67 3.64 3.59 3.57 3.93 3.79 3.75 3.71 3.67 3.62 3.59 3.63 3.73 3.83 3.8 3.78 3.5 3.46 3.62 4.24 4.42 6.55 6.51 6.46 6.41 4.32 4.33 5.74 5.71 5.7 5.9 6.23 6.2 6.17 6.15 5.11 4.81 4.79 4.71268 -0.354195 -0.055691 4.71268 -0.354195 -0.055691 69.2279 pippo 69.2279
ODOM 4.71268 -0.354195 -0.055691 0 0 0 0 pippo 0
NEFF 10.242
ODOM 4.7732 -0.355711 0.01191 0 0 0 69.4125 pippo 69.4125
ODOM 4.83229 -0.35349 0.042637 0 0 0 70.4202 pippo 70.4202
ODOM 4.89009 -0.350692 0.042637 0 0 0 69.8175 pippo 69.8175
ODOM 4.94919 -0.348471 0.042637 0 0 0 70.1245 pippo 70.1245
ODOM 5.00512 -0.346386 0.048783 0 0 0 70.3776 pippo 70.3776
ODOM 5.06515 -0.343808 0.036492 0 0 0 71.5558 pippo 71.5558
ODOM 5.12424 -0.341587 0.030346 0 0 0 71.5673 pippo 71.5673
ODOM 5.1824 -0.339723 0.024201 0 0 0 70.8476 pippo 70.8476
ODOM 5.24092 -0.338793 0.01191 0 0 0 71.1697 pippo 71.1697
ODOM 5.29979 -0.338797 0.00576404 0 0 0 71.2121 pippo 71.2121
ODOM 5.35866 -0.338801 -0.00652696 0 0 0 71.6271 pippo 71.6271
ODOM 5.41438 -0.338941 -0.012672 0 0 0 71.6283 pippo 71.6283
ODOM 5.47396 -0.340814 -0.024963 0 0 0 71.8122 pippo 71.8122
ODOM 5.53671 -0.342551 -0.037254 0 0 0 72.2813 pippo 72.2813
ODOM 5.5922 -0.344916 -0.049545 0 0 0 72.2825 pippo 72.2825
ODOM 5.64898 -0.347859 -0.061836 0 0 0 72.5077 pippo 72.5077
ODOM 5.70835 -0.351956 -0.067982 0 0 0 72.8128 pippo 72.8128
ODOM 5.76771 -0.356054 -0.074128 0 0 0 72.8146 pippo 72.8146
FLASER 180 0.53 0.54 0.54 0.54 0.54 0.54 0.54 0.54 0.55 0.55 0.55 0.55 0.55 0.55 0.55 0.55 0.55 0.56 0.56 0.56 0.57 0.57 0.57 0.58 0.57 0.58 0.59 0.59 0.59 0.59 0.6 0.61 0.61 0.62 0.62 0.63 0.64 0.66 0.67 0.67 0.68 0.7 0.7 0.71 0.73 0.81 3.08 3.05 2.64 3.34 3.73 3.74 3.75 2.48 3.51 3.66 3.58 3.45 3.33 3.24 3.25 3.28 2.07 3.34 81.83 81.83 81.83 3.11 2.52 2.56 2.77 2.8 81.83 6.39 12.72 9.71 12.61 8.45 5.39 5.07 5.04 5.02 5.01 4.93 4.97 5.05 81.83 5.78 81.83 8.18 11.3 4.27 8.81 4.14 4.24 81.83 81.83 81.83 81.83 81.83 81.83 3.49 3.6 81.83 3.76 81.83 81.83 3.58 81.83 81.83 81.83 81.83 3.34 81.83 81.83 3.22 3.19 3.17 3.16 3.11 3.11 3.07 3.05 2.98 3 2.98 2.95 2.95 2.92 2.89 2.88 2.87 2.84 2.83 2.82 2.8 2.79 2.78 2.77 2.75 2.74 2.73 2.73 2.72 2.71 2.73 81.83 81.83 81.83 3.06 3.15 81.83 3.14 3.06 3.04 3.02 2.98 3.28 3.26 3.24 3.21 3.19 3.18 3.16 3.15 3.13 3.33 3.41 3.41 3.4 3.39 3.39 3.2 6.13 6.11 6.09 5.52 4.11 4.08 6.06 5.74271 -0.306056 0.0196221 5.74271 -0.306056 0.0196221 72.8146 pippo 72.8146
ODOM 5.74271 -0.306056 0.0196221 0 0 0 0 pippo 0
NEFF 9.38841
ODOM 5.80264 -0.305475 0.0134771 0 0 0 73.0124 pippo 73.0124
ODOM 5.85989 -0.303986 0.0134771 0 0 0 73.3389 pippo 73.3389
ODOM 5.91579 -0.304278 0.00733106 0 0 0 73.4124 pippo 73.4124
ODOM 5.97662 -0.303255 0.00733106 0 0 0 73.794 pippo 73.794
ODOM 6.03789 -0.303128 0.00118606 0 0 0 73.818 pippo 73.818
ODOM 6.09468 -0.302979 0.00118606 0 0 0 74.013 pippo 74.013
ODOM 6.15148 -0.302829 0.00733106 0 0 0 74.3488 pippo 74.3488
ODOM 6.21231 -0.301805 0.0196221 0 0 0 74.4127 pippo 74.4127
ODOM 6.27224 -0.301225 0.0196221 0 0 0 74.8243 pippo 74.8243
ODOM 6.33173 -0.299747 0.00733106 0 0 0 74.8255 pippo 74.8255
ODOM 6.38763 -0.30004 0.00118606 0 0 0 75.013 pippo 75.013
ODOM 6.44577 -0.300344 -0.0111049 0 0 0 75.3996 pippo 75.3996
ODOM 6.50614 -0.30066 -0.0172509 0 0 0 75.4154 pippo 75.4154
ODOM 6.56472 -0.301861 -0.0295419 0 0 0 75.7993 pippo 75.7993
ODOM 6.6224 -0.303505 -0.0356869 0 0 0 75.8181 pippo 75.8181
ODOM 6.67963 -0.306488 -0.0479779 0 0 0 76.0577 pippo 76.0577
ODOM 6.7382 -0.309925 -0.0664149 0 0 0 76.3563 pippo 76.3563
ODOM 6.7981 -0.313816 -0.0664149 0 0 0 76.3928 pippo 76.3928
FLASER 180 3.22 3.22 3.21 3.21 3.19 3 2.95 2.91 2.88 2.86 2.83 2.8 2.76 2.75 2.71 2.69 2.67 2.65 2.63 2.6 2.59 2.57 2.56 2.54 2.53 2.52 2.51 2.49 2.35 2.01 2.46 2.46 2.59 1.78 1.74 1.79 2.66 3.04 3.04 3.04 1.28 1.28 2.58 2.89 3.03 2.85 2.64 2.48 2.42 2.43 2.44 2.45 2.46 2.48 14.17 1.64 1.62 2.21 2.23 81.83 1.86 1.85 81.83 81.83 5.94 6.02 81.83 81.83 81.83 81.83 81.83 5.4 7.43 11.8 8.72 11.66 7.46 4.28 4.06 4.04 4.03 4 3.93 3.92 3.98 4.01 81.83 81.83 4.77 7.27 7.21 10.27 8.24 3.21 7.6 9.71 9.56 3.21 81.83 81.83 81.83 81.83 81.83 81.83 81.83 81.83 81.83 2.48 2.59 81.83 81.83 2.72 2.66 2.64 2.6 81.83 2.55 2.51 2.49 2.49 2.48 2.44 2.43 2.39 2.39 2.36 2.36 2.34 2.33 2.31 2.31 2.29 2.28 2.27 2.26 2.25 2.23 2.23 2.21 2.21 2.22 2.2 2.2 2.18 2.17 2.15 2.15 2.15 2.15 2.14 2.14 2.15 2.14 2.14 2.14 2.15 2.15 2.16 2.18 2.19 2.2 2.22 2.21 2.22 2.23 2.24 2.26 2.27 2.25 2.84 3.07 3.36 3.7 2.74 2.7 2.7 2.7 2.7 2.71 3.01 6.76001 -0.295062 0.00858507 6.76001 -0.295062 0.00858507 76.3928 pippo 76.3928
ODOM 6.76001 -0.295062 0.00858507 0 0 0 0 pippo 0
NEFF 7.97807
ODOM 6.81918 -0.294962 -0.00985093 0 0 0 76.8012 pippo 76.8012
ODOM 6.87612 -0.295018 -0.00985093 0 0 0 76.8181 pippo 76.8181
ODOM 6.93357 -0.295935 -0.00985093 0 0 0 76.9977 pippo 76.9977
ODOM 6.99325 -0.296696 -0.00370593 0 0 0 77.3959 pippo 77.3959
ODOM 7.0224 -0.296901 -0.00985093 0 0 0 77.3969 pippo 77.3969
ODOM 7.08071 -0.297309 -0.0159969 0 0 0 77.5125 pippo 77.5125
ODOM 7.13952 -0.298579 -0.0221429 0 0 0 77.8728 pippo 77.8728
ODOM 7.19697 -0.299496 -0.0282879 0 0 0 77.874 pippo 77.874
ODOM 7.2563 -0.301627 -0.0282879 0 0 0 78.0778 pippo 78.0778
ODOM 7.3182 -0.302232 -0.0221429 0 0 0 78.4447 pippo 78.4447
ODOM 7.37702 -0.303501 -0.00985093 0 0 0 78.4459 pippo 78.4459
ODOM 7.4331 -0.304066 -0.00370593 0 0 0 78.658 pippo 78.658
ODOM 7.49004 -0.304122 0.00244007 0 0 0 79.0068 pippo 79.0068
ODOM 7.52142 -0.30417 0.00244007 0 0 0 79.0079 pippo 79.0079
ODOM 7.58059 -0.30407 -0.00370593 0 0 0 79.22 pippo 79.22
ODOM 7.6389 -0.304479 -0.0159969 0 0 0 79.623 pippo 79.623
ODOM 7.69635 -0.305396 -0.0221429 0 0 0 79.6242 pippo 79.6242
ODOM 7.75567 -0.307526 -0.0282879 0 0 0 79.8078 pippo 79.8078
ODOM 7.815 -0.309657 -0.0344339 0 0 0 80.1698 pippo 80.1698
FLASER 180 2.29 2.26 2.24 2.21 2.18 2.15 2.14 2.15 2.21 2.28 2.34 2.41 2.49 2.2 2.61 2.6 2.57 2.55 1 0.98 0.97 0.99 2.48 2.46 1.87 1.79 1.8 1.8 1.79 1.79 1.78 1.78 1.1 1.09 1.31 1.44 3.64 9.61 9.63 81.83 12.06 12.3 81.83 12.49 12.65 12.74 14.22 13.98 13.75 13.54 13.46 7.36 81.83 81.83 81.83 81.83 81.83 81.83 5.08 5.12 5.16 81.83 81.83 81.83 4.25 4.48 9.57 6.58 10.29 6.48 10.86 10.79 3.09 3.08 3.06 3.04 3.03 2.99 2.92 2.91 2.94 2.99 3.01 10.22 3.4 81.83 3.71 81.83 7.23 6.14 81.83 7.26 6.91 2.17 8.75 8.62 8.58 8.38 8.27 2.22 81.83 81.83 81.83 81.83 81.83 81.83 81.83 81.83 81.83 81.83 81.83 81.83 81.83 81.83 81.83 81.83 1.53 1.63 1.67 81.83 1.71 1.77 1.76 1.75 1.75 1.75 1.72 1.7 1.71 1.7 1.69 1.69 1.68 1.68 1.66 1.65 1.64 1.62 1.62 1.6 1.6 1.6 1.6 1.61 1.61 1.61 1.62 1.61 1.61 1.61 1.6 1.6 1.61 1.61 1.63 1.65 1.66 1.67 1.68 1.69 1.7 1.7 1.72 1.72 1.72 1.74 1.75 1.75 1.76 1.77 1.79 1.8 1.81 1.83 1.84 1.86 1.87 1.89 1.9 1.91 7.79428 -0.264683 0.0140686 7.79428 -0.264683 0.0140686 80.1698 pippo 80.1698
ODOM 7.79428 -0.264683 0.0140686 0 0 0 0 pippo 0
NEFF 6.74799
ODOM 7.82395 -0.264309 0.00792356 0 0 0 80.188 pippo 80.188
ODOM 7.88248 -0.264111 -0.00436744 0 0 0 80.3278 pippo 80.3278
ODOM 7.93933 -0.265012 -0.0166584 0 0 0 80.6617 pippo 80.6617
ODOM 7.9984 -0.265649 -0.0289494 0 0 0 80.8175 pippo 80.8175
ODOM 8.05719 -0.267671 -0.0350954 0 0 0 80.9378 pippo 80.9378
ODOM 8.11514 -0.270242 -0.0412404 0 0 0 81.319 pippo 81.319
ODOM 8.17393 -0.272264 -0.0473864 0 0 0 81.3202 pippo 81.3202
ODOM 8.23327 -0.275122 -0.0473864 0 0 0 81.4336 pippo 81.4336
ODOM 8.29177 -0.278529 -0.0473864 0 0 0 81.8297 pippo 81.8297
ODOM 8.32116 -0.27954 -0.0535314 0 0 0 81.8308 pippo 81.8308
ODOM 8.37966 -0.282947 -0.0535314 0 0 0 81.9936 pippo 81.9936
ODOM 8.43678 -0.286068 -0.0596774 0 0 0 82.4251 pippo 82.4251
ODOM 8.4975 -0.289211 -0.0473864 0 0 0 82.4263 pippo 82.4263
ODOM 8.55684 -0.292068 -0.0412404 0 0 0 82.6179 pippo 82.6179
ODOM 8.61479 -0.29464 -0.0412404 0 0 0 82.9289 pippo 82.9289
ODOM 8.67135 -0.296925 -0.0412404 0 0 0 82.9535 pippo 82.9535
ODOM 8.72515 -0.29864 -0.0350954 0 0 0 83.2984 pippo 83.2984
ODOM 8.76092 -0.300244 -0.0289494 0 0 0 83.3542 pippo 83.3542
ODOM 8.76536 -0.299717 -0.0350954 0 0 0 84.5248 pippo 84.5248
ODOM 8.75593 -0.299937 -0.0289494 0 0 0 84.6212 pippo 84.6212
ODOM 8.75676 -0.299387 -0.0289494 0 0 0 83.9534 pippo 83.9534
ODOM 8.75815 -0.299673 -0.0350954 0 0 0 84.2544 pippo 84.2544
ODOM 8.75815 -0.299673 -0.0535314 0 0 0 84.3982 pippo 84.3982
ODOM 8.7623 -0.30053 -0.0781134 0 0 0 84.8397 pippo 84.8397
ODOM 8.7623 -0.30053 -0.114987 0 0 0 84.8406 pippo 84.8406
ODOM 8.76175 -0.299695 -0.164151 0 0 0 85.0525 pippo 85.0525
ODOM 8.76092 -0.300244 -0.219461 0 0 0 85.3756 pippo 85.3756
ODOM 8.76314 -0.299981 -0.293207 0 0 0 85.3768 pippo 85.3768
ODOM 8.76701 -0.302223 -0.38539 0 0 0 85.5683 pippo 85.5683
ODOM 8.76646 -0.301388 -0.434554 0 0 0 85.9342 pippo 85.9342
FLASER 180 2.21 2.2 2.23 2.25 2.26 2.29 2.32 2.35 2.17 2.4 2.43 2.47 1.66 1.46 1.16 1.49 1.51 1.5 1.48 1.47 1.46 1.5 1.55 1.6 1.64 1.7 1.76 1.84 1.9 1.98 2.07 2.17 2.32 2.43 2.59 2.78 7.47 6.95 5.79 5.79 5.79 81.83 3.13 12.83 12.31 11.79 11.32 10.89 10.51 10.17 9.84 9.51 9.23 8.98 9.05 81.83 81.83 11.47 11.62 81.83 11.82 11.93 13.22 13.42 13.48 13.21 12.99 81.83 81.83 81.83 81.83 81.83 4.25 4.37 4.27 81.83 4.47 81.83 81.83 81.83 3.59 6.08 6.16 8.25 5.66 8.63 2.16 2.14 2.12 2.11 2.09 2.08 2.07 2.04 2 1.94 1.95 1.97 2 2.02 2.05 9.33 9.29 2.41 5.78 6.2 81.83 2.76 5.24 6.27 5.34 81.83 8.19 6.02 5.51 5.62 7.7 7.62 1.21 5.65 4.28 7.23 7.15 7.05 6.99 1.16 6.84 6.79 1.27 1.26 81.83 81.83 1.36 81.83 81.83 81.83 81.83 81.83 81.83 1.16 1.17 1.16 1.16 1.16 1.13 1.11 1.11 1.13 1.12 1.12 1.11 1.12 1.11 1.1 1.1 1.1 1.07 1.08 1.02 0.92 0.89 0.98 1.05 1.09 1.11 1.11 1.08 1.1 1.1 1.04 0.96 0.82 0.84 1.11 1.13 1.12 1.03 1.01 1.15 1.17 8.74424 -0.320146 -0.340804 8.74424 -0.320146 -0.340804 85.9342 pippo 85.9342
ODOM 8.74424 -0.320146 -0.340804 0 0 0 0 pippo 0
NEFF 11.0775
ODOM 8.74424 -0.320146 -0.383823 0 0 0 85.954 pippo 85.954
ODOM 8.74424 -0.320146 -0.457569 0 0 0 86.3163 pippo 86.3163
ODOM 8.74283 -0.319991 -0.52517 0 0 0 86.3979 pippo 86.3979
ODOM 8.74283 -0.319991 -0.580479 0 0 0 86.8007 pippo 86.8007
ODOM 8.74283 -0.319991 -0.64808 0 0 0 86.8019 pippo 86.8019
ODOM 8.74283 -0.319991 -0.709536 0 0 0 86.9979 pippo 86.9979
ODOM 8.74283 -0.319991 -0.740263 0 0 0 87.4627 pippo 87.4627
ODOM 8.74283 -0.319991 -0.7587 0 0 0 87.4638 pippo 87.4638
ODOM 8.74283 -0.319991 -0.777136 0 0 0 87.5534 pippo 87.5534
ODOM 8.74346 -0.320772 -0.783282 0 0 0 87.9788 pippo 87.9788
ODOM 8.74737 -0.324048 -0.777136 0 0 0 87.9983 pippo 87.9983
ODOM 8.76597 -0.342459 -0.770991 0 0 0 88.2627 pippo 88.2627
ODOM 8.81036 -0.385053 -0.777136 0 0 0 88.388 pippo 88.388
ODOM 8.87054 -0.445749 -0.789427 0 0 0 88.9653 pippo 88.9653
ODOM 8.91744 -0.491465 -0.789427 0 0 0 89.5737 pippo 89.5737
ODOM 8.95261 -0.527352 -0.801718 0 0 0 89.1943 pippo 89.1943
ODOM 8.98387 -0.559964 -0.807864 0 0 0 89.2183 pippo 89.2183
ODOM 9.0253 -0.603654 -0.801718 0 0 0 89.3539 pippo 89.3539
ODOM 9.07251 -0.652961 -0.807864 0 0 0 89.7934 pippo 89.7934
FLASER 180 3.53 3.5 1.91 1.91 81.83 81.83 3.63 3.58 3.08 2.85 2.64 2.54 2.37 2.19 2.07 2.01 2.02 2.02 2.04 0.93 0.88 0.93 2.1 1.92 1.34 1.31 1.29 1.25 1.23 1.2 1.18 1.16 1.17 1.2 1.21 1.23 1.26 1.29 1.32 1.35 1.38 1.41 1.44 1.49 1.53 1.56 1.61 1.67 1.71 1.78 1.84 1.9 1.99 2.07 2.16 2.25 2.37 2.51 7.8 7.55 6.96 5.4 5.39 5.39 2.74 2.71 81.83 12.77 12.19 11.65 11.18 10.78 10.34 9.98 9.65 9.33 9.04 8.75 8.58 8.63 81.83 81.83 10.96 11.1 81.83 11.46 11.36 12.69 12.89 13.13 11.57 12.64 12.43 81.83 81.83 81.83 81.83 81.83 81.83 3.83 3.96 3.87 81.83 81.83 81.83 81.83 2.97 81.83 3.17 5.77 6.21 8.3 8.24 5.16 5.18 6.17 9.54 2.1 1.78 1.76 1.75 1.74 1.73 1.73 1.73 1.72 1.72 1.69 1.65 1.62 1.62 1.65 1.69 1.71 1.75 81.83 7.3 4.99 81.83 2.5 7.91 6.02 5.77 7.62 5.88 7.36 7.28 7.19 5.44 7.02 6.94 6.86 6.78 4.15 6.67 4.62 6.55 6.52 6.43 3.99 4.54 6.61 4.62 4.67 81.83 81.83 81.83 3.64 6.29 3.75 81.83 4.46 1.06 1.19 1.15 1.16 1.19 1.18 1.14 1.16 9.04751 -0.676398 -0.782864 9.04751 -0.676398 -0.782864 89.7934 pippo 89.7934
ODOM 9.04751 -0.676398 -0.782864 0 0 0 0 pippo 0
NEFF 7.78505
ODOM 9.09401 -0.722218 -0.795155 0 0 0 89.8183 pippo 89.8183
ODOM 9.13111 -0.761562 -0.8013 0 0 0 89.9536 pippo 89.9536
ODOM 9.1677 -0.798732 -0.8013 0 0 0 90.4012 pippo 90.4012
ODOM 9.2075 -0.839725 -0.8013 0 0 0 90.4183 pippo 90.4183
ODOM 9.25194 -0.884659 -0.8013 0 0 0 90.6381 pippo 90.6381
ODOM 9.29497 -0.929474 -0.807446 0 0 0 91.0418 pippo 91.0418
ODOM 9.33607 -0.971995 -0.8013 0 0 0 91.043 pippo 91.043
ODOM 9.37254 -1.01057 -0.807446 0 0 0 91.2579 pippo 91.2579
ODOM 9.4117 -1.0508 -0.813591 0 0 0 91.6261 pippo 91.6261
ODOM 9.45267 -1.09473 -0.819737 0 0 0 91.6273 pippo 91.6273
ODOM 9.4943 -1.13943 -0.825882 0 0 0 92.6206 pippo 92.6206
ODOM 9.53386 -1.18324 -0.825882 0 0 0 92.2462 pippo 92.2462
ODOM 9.57291 -1.22488 -0.832028 0 0 0 92.2474 pippo 92.2474
ODOM 9.61118 -1.26716 -0.838174 0 0 0 92.448 pippo 92.448
ODOM 9.6514 -1.31173 -0.838174 0 0 0 92.8328 pippo 92.8328
ODOM 9.6929 -1.35784 -0.832028 0 0 0 92.8784 pippo 92.8784
ODOM 9.73118 -1.40012 -0.838174 0 0 0 92.9584 pippo 92.9584
ODOM 9.7701 -1.44317 -0.844319 0 0 0 93.3873 pippo 93.3873
FLASER 180 1.12 1.12 1.13 1.14 1.15 1.16 1.17 1.17 1.19 1.2 1.21 1.23 1.24 1.25 1.25 1.27 1.28 1.3 1.31 1.31 1.33 1.35 1.37 1.39 1.4 1.42 1.45 1.48 1.51 1.53 1.56 1.59 1.62 1.65 1.68 1.72 1.75 3.88 3.87 4.48 5.25 6.98 6.97 6.97 6.96 6.96 6.96 6.97 1.87 1.87 1.95 6.99 7 4.55 4.54 4.53 4.53 5.18 81.83 81.83 14.31 13.39 13.13 11.95 11.35 10.8 10.29 9.84 9.46 9.07 8.74 8.42 8.14 7.86 7.62 7.58 7.66 10.59 81.83 9.99 10.05 10.18 10.32 10.34 10.39 11.73 11.9 12.12 11.89 11.66 11.47 81.83 81.83 81.83 81.83 81.83 3.85 81.83 81.83 81.83 2.8 2.95 2.85 2.89 81.83 2.93 81.83 81.83 81.83 81.83 81.83 81.83 1.99 81.83 2.22 8.72 8.66 4.23 8.56 5.54 8.47 5.22 8.4 4.73 4.4 8.3 8.28 8.27 8.24 4.23 6.59 6.72 8.18 4.7 5.16 1.28 1.26 1.24 1.22 1.2 1.18 1.17 1.01 0.99 0.99 0.99 0.99 1 1 1.01 1.01 1.02 1.02 1.03 1.04 1.05 1.05 1.06 1.05 1.04 1.04 1.03 1.02 1.02 1.01 1.01 1.05 1.16 81.83 81.83 81.83 3.76 3.7 3.49 6.11 6.12 6.13 81.83 81.83 6.13 9.77791 -1.35569 -0.750569 9.77791 -1.35569 -0.750569 93.3873 pippo 93.3873
ODOM 9.77791 -1.35569 -0.750569 0 0 0 0 pippo 0
NEFF 7.6772
ODOM 9.82069 -1.3949 -0.756715 0 0 0 93.4484 pippo 93.4484
ODOM 9.86277 -1.43483 -0.756715 0 0 0 93.5684 pippo 93.5684
ODOM 9.90557 -1.47546 -0.76286 0 0 0 93.9994 pippo 93.9994
ODOM 9.94908 -1.51678 -0.76286 0 0 0 94.0006 pippo 94.0006
ODOM 9.99116 -1.55671 -0.769006 0 0 0 94.1883 pippo 94.1883
ODOM 10.0333 -1.59805 -0.775151 0 0 0 94.615 pippo 94.615
ODOM 10.0746 -1.63869 -0.775151 0 0 0 94.6163 pippo 94.6163
ODOM 10.1167 -1.68003 -0.781297 0 0 0 95.5732 pippo 95.5732
ODOM 10.1581 -1.72068 -0.787442 0 0 0 95.247 pippo 95.247
ODOM 10.1988 -1.76203 -0.799733 0 0 0 95.2483 pippo 95.2483
ODOM 10.2395 -1.8048 -0.799733 0 0 0 95.358 pippo 95.358
ODOM 10.2794 -1.84545 -0.799733 0 0 0 95.8626 pippo 95.8626
ODOM 10.3215 -1.88821 -0.805879 0 0 0 95.8637 pippo 95.8637
ODOM 10.3637 -1.93238 -0.805879 0 0 0 95.9539 pippo 95.9539
ODOM 10.4044 -1.97515 -0.812024 0 0 0 96.4666 pippo 96.4666
ODOM 10.4429 -2.01581 -0.812024 0 0 0 96.4679 pippo 96.4679
ODOM 10.4822 -2.05576 -0.805879 0 0 0 96.5543 pippo 96.5543
ODOM 10.5236 -2.09923 -0.812024 0 0 0 97.096 pippo 97.096
FLASER 180 5.01 5.1 5.12 5 4.94 1.89 1.89 4.99 4.46 4.18 4.13 4.12 4.27 4.06 3.68 1.3 1.3 1.32 3.47 3.43 3.4 3.38 3.38 3.53 3.71 3.92 4.14 4.39 4.66 6.43 6.4 6.38 6.36 6.34 6.33 6.31 6.29 6.28 6.27 6.27 6.27 3.82 3.79 3.77 3.75 3.74 3.96 4.26 4.64 5.13 5.77 17.95 17.97 81.83 81.83 14.72 13.04 12.26 12.27 10.64 10.06 9.49 9.02 8.6 8.2 7.85 7.54 7.23 6.95 6.72 6.61 6.66 9.52 9.53 9.23 8.98 9 9.11 9.22 9.33 9.34 9.41 10.68 10.84 9.5 10.98 10.77 10.57 10.42 81.83 81.83 81.83 81.83 81.83 81.83 81.83 2.84 81.83 81.83 81.83 81.83 81.83 1.94 1.8 81.83 81.83 1.87 1.99 81.83 81.83 1.97 81.83 81.83 81.83 81.83 81.83 81.83 81.83 81.83 81.83 81.83 81.83 81.83 81.83 81.83 81.83 81.83 81.83 1.35 1.1 3.48 7.45 7.44 7.44 5.84 3.97 7.44 3.57 6.33 6.28 3.98 4.46 6.23 6.17 6.1 6.02 4.56 4.11 6.72 4.77 6.67 4.78 6.54 6.48 6.45 3.86 6.33 3.99 4.66 4.96 6.18 4.27 6.11 5.44 3.7 6.04 4.18 6 5.98 5.96 5.95 5.94 5.91 5.91 1.65 6.13 6.12 4.1 6.09 6.09 10.5618 -2.02604 -0.712024 10.5618 -2.02604 -0.712024 97.096 pippo 97.096
ODOM 10.5618 -2.02604 -0.712024 0 0 0 0 pippo 0
NEFF 7.45135
ODOM 10.6083 -2.06719 -0.712024 0 0 0 97.0973 pippo 97.0973
ODOM 10.6515 -2.10443 -0.71817 0 0 0 97.1783 pippo 97.1783
ODOM 10.6931 -2.14042 -0.71817 0 0 0 97.7737 pippo 97.7737
ODOM 10.7365 -2.17907 -0.730461 0 0 0 97.7859 pippo 97.7859
ODOM 10.7829 -2.22022 -0.742752 0 0 0 97.7673 pippo 97.7673
ODOM 10.8272 -2.26089 -0.742752 0 0 0 98.2739 pippo 98.2739
ODOM 10.87 -2.30032 -0.742752 0 0 0 98.2785 pippo 98.2785
ODOM 10.9111 -2.3385 -0.748897 0 0 0 98.3542 pippo 98.3542
ODOM 10.9538 -2.37792 -0.761189 0 0 0 99.2988 pippo 99.2988
ODOM 10.9969 -2.42016 -0.767334 0 0 0 99.3185 pippo 99.3185
ODOM 11.0398 -2.46099 -0.77348 0 0 0 99.3195 pippo 99.3195
ODOM 11.082 -2.5026 -0.77348 0 0 0 99.3204 pippo 99.3204
ODOM 11.1235 -2.54359 -0.779625 0 0 0 99.3782 pippo 99.3782
ODOM 11.1648 -2.58317 -0.77348 0 0 0 99.9596 pippo 99.9596
ODOM 11.2063 -2.62415 -0.77348 0 0 0 99.9607 pippo 99.9607
ODOM 11.2484 -2.66436 -0.77348 0 0 0 99.9618 pippo 99.9618
ODOM 11.2906 -2.70597 -0.779625 0 0 0 100.155 pippo 100.155
ODOM 11.3321 -2.74696 -0.785771 0 0 0 100.617 pippo 100.617
FLASER 180 3.42 3.27 3.22 3.19 3.18 3.25 3.31 3.39 3.48 3.57 3.67 3.77 3.88 3.98 4.1 4.22 4.37 6.14 6.1 6.05 6.01 5.97 5.93 5.89 5.87 5.84 5.81 3.23 3.2 3.17 3.14 3.14 3.24 3.35 3.47 3.6 3.71 3.88 4.05 4.27 4.5 4.8 5.12 5.55 6.11 81.83 17.12 17.15 17.16 17.19 17.23 81.83 13.92 11.94 11.43 10.1 9.37 8.7 8.18 7.71 7.27 6.91 6.57 6.24 5.98 5.73 5.68 5.73 5.9 8.54 8.63 8.41 8.15 8.02 8.08 8.16 8.24 8.34 8.36 8.38 8.69 9.76 9.9 8.51 9.96 9.76 9.6 2.64 81.83 81.83 81.83 81.83 81.83 81.83 81.83 81.83 81.83 81.83 1.79 81.83 81.83 81.83 81.83 81.83 81.83 81.83 81.83 81.83 81.83 81.83 81.83 81.83 81.83 81.83 81.83 1.09 0.83 0.81 0.89 81.83 81.83 1.08 0.94 0.92 81.83 81.83 81.83 81.83 1.07 81.83 81.83 81.83 81.83 81.83 81.83 81.83 81.83 81.83 81.83 81.83 81.83 81.83 0.89 0.89 0.88 0.89 0.86 0.86 0.85 0.85 0.84 0.84 0.84 0.84 0.83 0.84 0.83 0.82 0.82 0.81 0.82 0.8 0.79 0.79 0.78 0.62 0.64 0.66 0.8 0.81 0.82 0.83 0.83 0.83 0.83 0.83 0.83 0.83 0.83 3.02 11.3021 -2.68289 -0.698271 11.3021 -2.68289 -0.698271 100.617 pippo 100.617
ODOM 11.3021 -2.68289 -0.698271 0 0 0 0 pippo 0
NEFF 12.5226
ODOM 11.3473 -2.72148 -0.704416 0 0 0 100.639 pippo 100.639
ODOM 11.3905 -2.75757 -0.704416 0 0 0 100.768 pippo 100.768
ODOM 11.4305 -2.79144 -0.710562 0 0 0 101.274 pippo 101.274
ODOM 11.4515 -2.81032 -0.698271 0 0 0 101.275 pippo 101.275
ODOM 11.4471 -2.80616 -0.704416 0 0 0 101.458 pippo 101.458
ODOM 11.4454 -2.80504 -0.704416 0 0 0 101.905 pippo 101.905
ODOM 11.4454 -2.80504 -0.704416 0 0 0 101.906 pippo 101.906
ODOM 11.4454 -2.80504 -0.704416 0 0 0 101.988 pippo 101.988
ODOM 11.4454 -2.80504 -0.704416 0 0 0 102.437 pippo 102.437
ODOM 11.4454 -2.80504 -0.710562 0 0 0 102.438 pippo 102.438
ODOM 11.4454 -2.80504 -0.722853 0 0 0 102.535 pippo 102.535
ODOM 11.4479 -2.80671 -0.753581 0 0 0 103.384 pippo 103.384
ODOM 11.4479 -2.80671 -0.765871 0 0 0 102.956 pippo 102.956
ODOM 11.4479 -2.80671 -0.815036 0 0 0 103.118 pippo 103.118
ODOM 11.4468 -2.80477 -0.870345 0 0 0 103.506 pippo 103.506
ODOM 11.446 -2.80421 -0.925655 0 0 0 103.507 pippo 103.507
ODOM 11.4471 -2.80616 -1.00555 0 0 0 104.047 pippo 104.047
ODOM 11.4482 -2.8081 -1.08544 0 0 0 104.006 pippo 104.006
ODOM 11.4485 -2.80949 -1.10388 0 0 0 104.029 pippo 104.029
ODOM 11.4493 -2.81004 -1.14075 0 0 0 104.288 pippo 104.288
ODOM 11.4485 -2.80949 -1.18991 0 0 0 104.765 pippo 104.765
FLASER 180 4.66 4.69 4.72 4.76 4.81 4.84 4.89 4.93 4.39 5.02 5.07 5.13 5.18 5.25 5.1 4.97 4.87 4.18 81.83 4.04 3.54 3.46 3.39 3.23 3.18 3.13 3.15 3.21 3.28 3.35 3.42 3.49 3.58 3.66 3.76 3.85 3.95 4.06 4.17 4.3 6.1 6.04 6 5.94 5.9 5.86 5.82 5.78 5.74 3.17 3.09 3.06 3.02 2.99 3.06 3.14 3.24 3.34 3.46 3.55 3.69 3.83 3.99 4.18 4.41 4.66 4.96 5.32 5.78 6.45 16.96 16.94 16.96 16.97 17 17.05 81.83 81.83 12.09 11.25 10.07 9.32 8.64 8.07 7.59 7.14 6.78 6.42 6.1 5.82 5.58 5.48 5.52 5.56 8.33 8.37 8.33 8.07 7.83 7.83 7.9 7.98 8.07 8.2 8.12 8.24 9.46 9.59 9.73 9.89 9.72 9.51 9.37 2.4 81.83 81.83 81.83 81.83 81.83 81.83 81.83 81.83 81.83 81.83 81.83 81.83 1.62 81.83 81.83 81.83 81.83 81.83 81.83 81.83 81.83 81.83 81.83 81.83 81.83 81.83 81.83 1.2 1.18 1.12 81.83 1.09 1.08 1.07 1.05 0.93 0.82 0.84 0.66 0.67 0.71 0.94 0.92 81.83 0.79 0.79 0.86 81.83 81.83 81.83 0.92 81.83 81.83 0.87 0.87 0.85 0.85 0.85 0.84 0.84 0.82 0.83 0.81 0.81 0.82 0.81 11.4391 -2.82665 -1.15395 11.4391 -2.82665 -1.15395 104.765 pippo 104.765
ODOM 11.4391 -2.82665 -1.15395 0 0 0 0 pippo 0
NEFF 10.5497
ODOM 11.4387 -2.82527 -1.19697 0 0 0 104.776 pippo 104.776
ODOM 11.4387 -2.82527 -1.20312 0 0 0 104.778 pippo 104.778
ODOM 11.4387 -2.82527 -1.20312 0 0 0 105.218 pippo 105.218
ODOM 11.4387 -2.82527 -1.20312 0 0 0 105.22 pippo 105.22
ODOM 11.4387 -2.82527 -1.19697 0 0 0 105.336 pippo 105.336
ODOM 11.4399 -2.82717 -1.19083 0 0 0 105.854 pippo 105.854
ODOM 11.4414 -2.83045 -1.18468 0 0 0 105.855 pippo 105.855
ODOM 11.4509 -2.8551 -1.17239 0 0 0 105.928 pippo 105.928
ODOM 11.4739 -2.90924 -1.17853 0 0 0 106.095 pippo 106.095
ODOM 11.5078 -2.9913 -1.19083 0 0 0 106.581 pippo 106.581
ODOM 11.534 -3.0556 -1.19083 0 0 0 106.582 pippo 106.582
ODOM 11.5516 -3.09939 -1.20312 0 0 0 107.247 pippo 107.247
ODOM 11.5592 -3.11938 -1.21541 0 0 0 107.025 pippo 107.025
ODOM 11.5763 -3.16401 -1.20926 0 0 0 107.049 pippo 107.049
ODOM 11.5987 -3.22484 -1.21541 0 0 0 107.216 pippo 107.216
ODOM 11.6239 -3.29444 -1.2277 0 0 0 107.892 pippo 107.892
ODOM 11.6445 -3.35061 -1.23384 0 0 0 107.903 pippo 107.903
ODOM 11.6607 -3.39472 -1.23999 0 0 0 107.883 pippo 107.883
ODOM 11.6763 -3.44191 -1.24614 0 0 0 108.181 pippo 108.181
ODOM 11.6973 -3.50306 -1.25843 0 0 0 108.239 pippo 108.239
ODOM 11.7182 -3.57004 -1.26457 0 0 0 108.438 pippo 108.438
ODOM 11.7369 -3.62739 -1.26457 0 0 0 108.818 pippo 108.818
ODOM 11.7513 -3.67268 -1.27072 0 0 0 108.819 pippo 108.819
ODOM 11.7672 -3.72484 -1.27686 0 0 0 108.936 pippo 108.936
ODOM 11.7852 -3.78527 -1.28301 0 0 0 109.393 pippo 109.393
FLASER 180 4.95 4.99 5.02 5.06 5.09 4.17 3.34 3.23 2.95 2.86 2.84 2.86 2.89 2.92 2.96 2.99 3.04 3.07 3.11 3.15 3.19 3.25 3.29 3.34 3.4 3.45 3.51 3.58 3.65 3.72 3.79 3.84 5.68 5.61 5.53 5.47 5.41 2.45 2.4 2.35 2.31 2.3 2.32 2.36 2.41 2.46 2.49 2.55 2.6 2.66 2.73 2.79 2.86 2.94 3.02 3.1 3.19 3.3 3.4 3.51 3.65 3.79 3.95 4.14 4.37 4.63 4.95 5.31 5.82 6.56 16.04 16.04 16.05 16.06 16.09 16.1 16.14 81.83 12.08 10.76 10.31 8.91 8.21 7.57 7.06 6.61 6.22 5.88 5.56 5.28 5.03 4.8 4.61 4.52 4.56 4.59 5.49 7.4 7.47 7.29 7.08 6.85 6.89 6.98 7.04 7.1 81.83 7.28 7.23 7.38 8.6 8.72 8.86 7.4 8.82 8.65 8.52 8.38 8.26 8.14 7.1 7.01 6.36 6.96 7.13 7.3 2.12 2.08 2.06 1.75 1.57 1.55 1.51 1.48 1.45 1.44 1.4 1.38 1.36 1.32 1.31 1.29 1.29 1.27 1.25 1.23 1.21 1.19 1.18 1.16 1.14 1.15 1.15 1.13 1.12 1.1 1.1 1.08 1.08 1.07 1.07 1.07 1 1.05 1.04 1.03 1.02 1.01 1.01 1 1 0.99 0.98 0.96 0.97 0.97 0.96 0.95 0.94 0.93 11.8299 -3.71496 -1.17676 11.8299 -3.71496 -1.17676 109.393 pippo 109.393
ODOM 11.8299 -3.71496 -1.17676 0 0 0 0 pippo 0
NEFF 7.77986
ODOM 11.856 -3.77624 -1.17676 0 0 0 109.394 pippo 109.394
ODOM 11.8784 -3.82908 -1.1829 0 0 0 109.538 pippo 109.538
ODOM 11.8976 -3.87706 -1.18905 0 0 0 109.999 pippo 109.999
ODOM 11.9181 -3.92905 -1.20134 0 0 0 110 pippo 110
ODOM 11.941 -3.9877 -1.20134 0 0 0 110.329 pippo 110.329
ODOM 11.9635 -4.04502 -1.20134 0 0 0 110.625 pippo 110.625
ODOM 11.9738 -4.07213 -1.20134 0 0 0 110.625 pippo 110.625
ODOM 11.9943 -4.12411 -1.20749 0 0 0 111.319 pippo 111.319
ODOM 12.0149 -4.17833 -1.21978 0 0 0 111.136 pippo 111.136
ODOM 12.0351 -4.23568 -1.22592 0 0 0 111.159 pippo 111.159
ODOM 12.0553 -4.2908 -1.22592 0 0 0 111.295 pippo 111.295
ODOM 12.0741 -4.34416 -1.23821 0 0 0 112.202 pippo 112.202
ODOM 12.0938 -4.40018 -1.23821 0 0 0 112.423 pippo 112.423
ODOM 12.1141 -4.45753 -1.24436 0 0 0 111.958 pippo 111.958
ODOM 12.1324 -4.51179 -1.24436 0 0 0 112.322 pippo 112.322
ODOM 12.1508 -4.56605 -1.24436 0 0 0 112.339 pippo 112.339
ODOM 12.1701 -4.62073 -1.2505 0 0 0 112.496 pippo 112.496
ODOM 12.1885 -4.67946 -1.25665 0 0 0 113.329 pippo 113.329
